[{"name": "Brunner + Imboden AG", "plz": "3645", "ort": "Gwatt", "ma": 100, "lat": 46.7228, "lon": 7.6208}, {"name": "Gemeindeverwaltung Maur", "plz": "8124", "ort": "Maur", "ma": 100, "lat": 47.3384, "lon": 8.6718}, {"name": "Rohr AG", "plz": "5212", "ort": "Hausen", "ma": 100, "lat": 47.4625, "lon": 8.2065}, {"name": "ask! - Beratungsdienste f\u00fcr Ausbildung und Beruf", "plz": "5000", "ort": "Aarau", "ma": 100, "lat": 47.3899, "lon": 8.0462}, {"name": "Stiftung Schloss Regensberg", "plz": "8158", "ort": "Regensberg", "ma": 100, "lat": 47.4771, "lon": 8.4268}, {"name": "Kobelt AG", "plz": "9437", "ort": "Marbach", "ma": 100, "lat": 47.3844, "lon": 9.5807}, {"name": "Galenica AG", "plz": "3027", "ort": "Bern", "ma": 100, "lat": 46.9555, "lon": 7.387}, {"name": "Commune d'Echallens", "plz": "1040", "ort": "Echallens", "ma": 100, "lat": 46.6381, "lon": 6.6354}, {"name": "Pemsa Group", "plz": "1095", "ort": "Lutry", "ma": 100, "lat": 46.4754, "lon": 6.6852}, {"name": "Krebsliga", "plz": "3008", "ort": "Bern", "ma": 100, "lat": 46.9451, "lon": 7.4139}, {"name": "Magnolia International", "plz": "4142", "ort": "M\u00fcnchenstein", "ma": 100, "lat": 47.5175, "lon": 7.6115}, {"name": "SAH Z\u00fcrich", "plz": "8005", "ort": "Z\u00fcrich", "ma": 100, "lat": 47.3868, "lon": 8.5205}, {"name": "Gemeinde Flawil", "plz": "9230", "ort": "Flawil", "ma": 100, "lat": 47.4091, "lon": 9.1869}, {"name": "Baccinex SA - Adragos", "plz": "2822", "ort": "Courroux", "ma": 100, "lat": 47.3631, "lon": 7.3763}, {"name": "Loepfe Brothers Ltd.", "plz": "8623", "ort": "Wetzikon", "ma": 100, "lat": 47.3321, "lon": 8.8214}, {"name": "IMT AG", "plz": "9470", "ort": "Buchs SG", "ma": 100, "lat": 47.165, "lon": 9.4758}, {"name": "Localnet AG", "plz": "3400", "ort": "Burgdorf", "ma": 100, "lat": 47.0575, "lon": 7.6178}, {"name": "Stiftung Domino", "plz": "5212", "ort": "Hausen", "ma": 100, "lat": 47.4625, "lon": 8.2065}, {"name": "Pro Senectute Schweiz", "plz": "8027", "ort": "Z\u00fcrich", "ma": 100, "lat": 46.3051, "lon": 7.9576}, {"name": "Pro Senectute Vaud", "plz": "1004", "ort": "Lausanne", "ma": 100, "lat": 46.5319, "lon": 6.6162}, {"name": "ECAB / KGV", "plz": "1763", "ort": "Granges-Paccot", "ma": 100, "lat": 46.8224, "lon": 7.1537}, {"name": "Janico Management AG", "plz": "8500", "ort": "Frauenfeld", "ma": 100, "lat": 47.5605, "lon": 8.9038}, {"name": "Freies Gymnasium Z\u00fcrich", "plz": "8008", "ort": "Z\u00fcrich", "ma": 100, "lat": 47.3536, "lon": 8.5614}, {"name": "Th\u00e9\u00e2tre Vidy-Lausanne", "plz": "1007", "ort": "Lausanne", "ma": 100, "lat": 46.4814, "lon": 6.6075}, {"name": "Fr\u00fceling - Zentrum f\u00fcrs Alter", "plz": "8222", "ort": "Beringen", "ma": 100, "lat": 47.701, "lon": 8.5829}, {"name": "mobilezone ag", "plz": "6343", "ort": "Rotkreuz", "ma": 100, "lat": 47.145, "lon": 8.4739}, {"name": "Primarschule Glattpark", "plz": "8152", "ort": "Glattpark", "ma": 100, "lat": 47.4332, "lon": 8.5616}, {"name": "Gemeindeverwaltung M\u00fcnchenbuchsee", "plz": "3053", "ort": "M\u00fcnchenbuchsee", "ma": 100, "lat": 47.0199, "lon": 7.451}, {"name": "Bosch Thermotechnik AG", "plz": "4133", "ort": "Pratteln", "ma": 100, "lat": 47.5174, "lon": 7.6941}, {"name": "Borm-Informatik AG", "plz": "6312", "ort": "Steinhausen", "ma": 100, "lat": 47.1987, "lon": 8.4848}, {"name": "Privatklinik Obach", "plz": "4500", "ort": "Solothurn", "ma": 100, "lat": 47.2073, "lon": 7.5294}, {"name": "ZBA BL", "plz": "4132", "ort": "Muttenz", "ma": 100, "lat": 47.5228, "lon": 7.6465}, {"name": "CEP Estavayer", "plz": "1470", "ort": "Estavayer", "ma": 100, "lat": 46.862, "lon": 6.8389}, {"name": "NETSTAL Maschinen AG", "plz": "8752", "ort": "N\u00e4fels", "ma": 100, "lat": 47.0821, "lon": 9.0108}, {"name": "Regio 144 AG", "plz": "8630", "ort": "R\u00fcti", "ma": 100, "lat": 47.2581, "lon": 8.8607}, {"name": "Elma Electronic AG", "plz": "8620", "ort": "Wetzikon", "ma": 100, "lat": 47.3224, "lon": 8.8063}, {"name": "Kantonsschule Schaffhausen", "plz": "8200", "ort": "Schaffhausen", "ma": 100, "lat": 47.7171, "lon": 8.6211}, {"name": "Swiss Olympic", "plz": "3063", "ort": "Ittigen", "ma": 100, "lat": 46.983, "lon": 7.479}, {"name": "Schwabe Pharma AG", "plz": "6403", "ort": "K\u00fcssnacht am Rigi", "ma": 100, "lat": 47.081, "lon": 8.44}, {"name": "Europ Assistance Suisse", "plz": "1260", "ort": "Nyon", "ma": 100, "lat": 46.3833, "lon": 6.2327}, {"name": "Raiffeisenbank Nidwalden", "plz": "6370", "ort": "Stans", "ma": 100, "lat": 46.9566, "lon": 8.3609}, {"name": "Sawia", "plz": "8047", "ort": "Z\u00fcrich", "ma": 100, "lat": 47.3739, "lon": 8.487}, {"name": "Microdul AG", "plz": "8045", "ort": "Z\u00fcrich", "ma": 100, "lat": 47.3516, "lon": 8.5056}, {"name": "Gemeinde Muri bei Bern", "plz": "3074", "ort": "Muri bei Bern", "ma": 100, "lat": 46.927, "lon": 7.4862}, {"name": "Energy Infrastructure Partners", "plz": "8001", "ort": "Zurich", "ma": 100, "lat": 47.3729, "lon": 8.5416}, {"name": "Bachema AG", "plz": "8952", "ort": "Schlieren", "ma": 100, "lat": 47.3946, "lon": 8.4455}, {"name": "Sekundarschule Arlesheim - M\u00fcnchenstein", "plz": "4142", "ort": "M\u00fcnchenstein", "ma": 100, "lat": 47.5175, "lon": 7.6115}, {"name": "Gemeinde Uzwil", "plz": "9240", "ort": "Uzwil", "ma": 100, "lat": 47.4352, "lon": 9.1358}, {"name": "Primar- und Sekundarschule Obfelden", "plz": "8912", "ort": "Obfelden", "ma": 100, "lat": 47.2621, "lon": 8.4191}, {"name": "Innovative Environmental Services (IES)", "plz": "4108", "ort": "Witterswil", "ma": 100, "lat": 47.4872, "lon": 7.5262}, {"name": "Caliqua AG", "plz": "4053", "ort": "Basel", "ma": 100, "lat": 47.5382, "lon": 7.6011}, {"name": "Commune d'Aigle", "plz": "1860", "ort": "Aigle", "ma": 100, "lat": 46.3139, "lon": 6.969}, {"name": "Swiss Life Select", "plz": "6302", "ort": "Zug", "ma": 100, "lat": 46.1297, "lon": 7.7902}, {"name": "Zwilag Zwischenlager W\u00fcrenlingen AG", "plz": "5303", "ort": "W\u00fcrenlingen", "ma": 100, "lat": 47.5312, "lon": 8.2477}, {"name": "European Respiratory Society", "plz": "1003", "ort": "Lausanne", "ma": 100, "lat": 46.52, "lon": 6.6301}, {"name": "Peterhans Handwerkercenter AG", "plz": "5436", "ort": "W\u00fcrenlos", "ma": 100, "lat": 47.4493, "lon": 8.3647}, {"name": "Besi Switzerland AG", "plz": "6312", "ort": "Steinhausen", "ma": 100, "lat": 47.1987, "lon": 8.4848}, {"name": "Sentec AG", "plz": "4106", "ort": "Therwil", "ma": 100, "lat": 47.4967, "lon": 7.5565}, {"name": "Privatklinik Belair", "plz": "8200", "ort": "Schaffhausen", "ma": 100, "lat": 47.7171, "lon": 8.6211}, {"name": "Eric Schweizer AG", "plz": "3612", "ort": "Steffisburg", "ma": 100, "lat": 46.7827, "lon": 7.6382}, {"name": "Fondation Beyeler", "plz": "4125", "ort": "Riehen", "ma": 100, "lat": 47.5808, "lon": 7.6536}, {"name": "Mosterei M\u00f6hl AG", "plz": "9320", "ort": "Arbon", "ma": 100, "lat": 47.5396, "lon": 9.463}, {"name": "Fehr Braunwalder AG", "plz": "9015", "ort": "St. Gallen", "ma": 100, "lat": 47.4103, "lon": 9.3089}, {"name": "Granol AG", "plz": "6210", "ort": "Sursee", "ma": 100, "lat": 47.1765, "lon": 8.105}, {"name": "Bundesamt f\u00fcr Raumentwicklung ARE", "plz": "3063", "ort": "Ittigen", "ma": 100, "lat": 46.983, "lon": 7.479}, {"name": "Narimpex AG", "plz": "2503", "ort": "Biel-Bienne", "ma": 100, "lat": 47.1317, "lon": 7.2586}, {"name": "ICF Z\u00fcrich", "plz": "8600", "ort": "D\u00fcbendorf", "ma": 99, "lat": 47.3928, "lon": 8.621}, {"name": "Gressel AG", "plz": "8355", "ort": "Aadorf", "ma": 99, "lat": 47.4931, "lon": 8.9045}, {"name": "Collaboration Betters The World", "plz": "1228", "ort": "Plan-les-Ouates", "ma": 99, "lat": 46.1643, "lon": 6.1196}, {"name": "St\u00e4delipark Wohn- und Pflegezentrum", "plz": "6374", "ort": "Buochs", "ma": 98, "lat": 46.9645, "lon": 8.4227}, {"name": "Bataillard AG", "plz": "6023", "ort": "Rothenburg", "ma": 98, "lat": 47.1032, "lon": 8.2671}, {"name": "Stettler Sapphire", "plz": "3250", "ort": "Lyss", "ma": 98, "lat": 47.0754, "lon": 7.3108}, {"name": "Stiftung Klinik Susenberg", "plz": "8044", "ort": "Z\u00fcrich", "ma": 98, "lat": 47.3803, "lon": 8.573}, {"name": "L\u00fcchinger Meyer Partner", "plz": "8005", "ort": "Z\u00fcrich", "ma": 97, "lat": 47.3868, "lon": 8.5205}, {"name": "PIRMIN JUNG Schweiz AG", "plz": "6210", "ort": "Sursee", "ma": 96, "lat": 47.1765, "lon": 8.105}, {"name": "CTC Analytics AG", "plz": "4222", "ort": "Zwingen", "ma": 96, "lat": 47.4358, "lon": 7.5302}, {"name": "RepRisk", "plz": "8006", "ort": "Z\u00fcrich", "ma": 96, "lat": 47.3858, "lon": 8.5432}, {"name": "Politische Gemeinde Kirchberg", "plz": "9533", "ort": "Kirchberg SG", "ma": 96, "lat": 47.4197, "lon": 9.0444}, {"name": "Jugenddorf Knutwil", "plz": "6213", "ort": "Knutwil", "ma": 96, "lat": 47.2023, "lon": 8.0708}, {"name": "Nidecker SA", "plz": "1180", "ort": "Rolle", "ma": 96, "lat": 46.4259, "lon": 6.3489}, {"name": "Diartis AG", "plz": "5600", "ort": "Lenzburg", "ma": 96, "lat": 47.3855, "lon": 8.1875}, {"name": "Redguard AG", "plz": "3008", "ort": "Bern", "ma": 95, "lat": 46.9451, "lon": 7.4139}, {"name": "Leuchter IT Solutions AG", "plz": "6003", "ort": "Luzern", "ma": 95, "lat": 47.05, "lon": 8.297}, {"name": "VELUX Schweiz AG", "plz": "4663", "ort": "Aarburg", "ma": 95, "lat": 47.3243, "lon": 7.9066}, {"name": "Stiftung Lohner Adelboden", "plz": "3715", "ort": "Adelboden", "ma": 95, "lat": 46.4718, "lon": 7.5524}, {"name": "Aerne Engineering AG", "plz": "9320", "ort": "Arbon", "ma": 95, "lat": 47.5396, "lon": 9.463}, {"name": "Taracell AG", "plz": "5444", "ort": "K\u00fcnten", "ma": 95, "lat": 47.3881, "lon": 8.3274}, {"name": "Aebi & Vincent Architekten SIA AG", "plz": "3007", "ort": "Bern", "ma": 95, "lat": 46.9393, "lon": 7.4342}, {"name": "CSL Immobilien AG", "plz": "8052", "ort": "Z\u00fcrich", "ma": 95, "lat": 47.4245, "lon": 8.5407}, {"name": "Borer Chemie AG", "plz": "4528", "ort": "Zuchwil", "ma": 95, "lat": 47.2061, "lon": 7.5621}, {"name": "Stadtverwaltung Sursee", "plz": "6210", "ort": "Sursee", "ma": 95, "lat": 47.1765, "lon": 8.105}, {"name": "Bachofen", "plz": "8610", "ort": "Uster", "ma": 95, "lat": 47.3527, "lon": 8.7227}, {"name": "Raphi Stiftung", "plz": "6422", "ort": "Steinen", "ma": 95, "lat": 47.0517, "lon": 8.6124}, {"name": "Dr.Meyer Immobilien AG", "plz": "3018", "ort": "Bern", "ma": 95, "lat": 46.9352, "lon": 7.3889}, {"name": "EMF", "plz": "1700", "ort": "Fribourg", "ma": 95, "lat": 46.8043, "lon": 7.1649}, {"name": "Vogt AG Verbindungstechnik", "plz": "4654", "ort": "Lostorf", "ma": 95, "lat": 47.3896, "lon": 7.9351}, {"name": "P\u00e4dagogisches Zentrum Pestalozzihaus", "plz": "8352", "ort": "Elsau", "ma": 95, "lat": 47.5022, "lon": 8.8048}, {"name": "\u00c9cole professionnelle artisanale et commerciale de Bulle", "plz": "1630", "ort": "Bulle", "ma": 95, "lat": 46.5971, "lon": 7.0076}, {"name": "Limeco", "plz": "8953", "ort": "Dietikon", "ma": 94, "lat": 47.4014, "lon": 8.389}, {"name": "Santhera Pharmaceuticals", "plz": "4133", "ort": "Pratteln", "ma": 94, "lat": 47.5174, "lon": 7.6941}, {"name": "Gemeinde Urdorf", "plz": "8902", "ort": "Urdorf", "ma": 94, "lat": 47.3809, "lon": 8.4274}, {"name": "SCHMOLZ + BICKENBACH Stahlcenter AG", "plz": "9552", "ort": "Bronschhofen", "ma": 94, "lat": 47.4804, "lon": 9.0299}, {"name": "ESPAS", "plz": "8049", "ort": "Z\u00fcrich", "ma": 93, "lat": 47.4087, "lon": 8.5005}, {"name": "Ovivo Switzerland AG", "plz": "4108", "ort": "Witterswil", "ma": 92, "lat": 47.4872, "lon": 7.5262}, {"name": "Fondation Rurale Interjurassienne", "plz": "2852", "ort": "Court\u00e9telle", "ma": 92, "lat": 47.3324, "lon": 7.3197}, {"name": "Arnold Magnetic Technologies Lupfig", "plz": "5242", "ort": "Lupfig", "ma": 92, "lat": 47.4323, "lon": 8.2111}, {"name": "Melexis Technologies SA", "plz": "2022", "ort": "La Grande B\u00e9roche", "ma": 92, "lat": 46.9226, "lon": 6.8129}, {"name": "UP AG", "plz": "8910", "ort": "Affoltern am Albis", "ma": 91, "lat": 47.2788, "lon": 8.4544}, {"name": "Gritec AG", "plz": "7214", "ort": "Gr\u00fcsch", "ma": 91, "lat": 46.9603, "lon": 9.643}, {"name": "Oneconsult AG", "plz": "8045", "ort": "Z\u00fcrich", "ma": 91, "lat": 47.3516, "lon": 8.5056}, {"name": "Ingram Micro GmbH", "plz": "6330", "ort": "Cham", "ma": 90, "lat": 47.1953, "lon": 8.4587}, {"name": "veratron AG", "plz": "9464", "ort": "R\u00fcthi", "ma": 90, "lat": 47.2933, "lon": 9.5367}, {"name": "tiko Energy Solutions", "plz": "8004", "ort": "Z\u00fcrich", "ma": 90, "lat": 47.378, "lon": 8.5234}, {"name": "icotec ag", "plz": "9450", "ort": "Altst\u00e4tten", "ma": 90, "lat": 47.3915, "lon": 9.5506}, {"name": "Bildungszentrum Gesundheit und Soziales (BGS)", "plz": "7000", "ort": "Chur", "ma": 90, "lat": 46.853, "lon": 9.5298}, {"name": "FOPPA AG", "plz": "7206", "ort": "Zizers", "ma": 90, "lat": 46.9454, "lon": 9.5804}, {"name": "KME", "plz": "8008", "ort": "Z\u00fcrich", "ma": 90, "lat": 47.3536, "lon": 8.5614}, {"name": "PWB AG", "plz": "9450", "ort": "Altst\u00e4tten", "ma": 90, "lat": 47.3915, "lon": 9.5506}, {"name": "Spitex Grenchen", "plz": "2540", "ort": "Grenchen", "ma": 90, "lat": 47.2001, "lon": 7.38}, {"name": "HFGS Aarau", "plz": "5001", "ort": "Aarau", "ma": 90, "lat": 47.4076, "lon": 7.0365}, {"name": "aprentas", "plz": "4002", "ort": "Basel", "ma": 90, "lat": 46.3863, "lon": 7.6415}, {"name": "Flos Carmeli", "plz": "1700", "ort": "Fribourg", "ma": 90, "lat": 46.8043, "lon": 7.1649}, {"name": "CO de P\u00e9rolles", "plz": "1700", "ort": "Fribourg", "ma": 90, "lat": 46.8043, "lon": 7.1649}, {"name": "Spitex Glattal", "plz": "8305", "ort": "Dietlikon", "ma": 90, "lat": 47.4227, "lon": 8.614}, {"name": "Commune de Fully", "plz": "1926", "ort": "Fully", "ma": 90, "lat": 46.1611, "lon": 7.1227}, {"name": "Commune d'Orbe", "plz": "1350", "ort": "Orbe", "ma": 90, "lat": 46.7227, "lon": 6.5433}, {"name": "Mensch und Maschine Schweiz AG", "plz": "8185", "ort": "Winkel", "ma": 90, "lat": 47.484, "lon": 8.5582}, {"name": "Orchid Sports Cars GE SA", "plz": "1218", "ort": "Le Grand-Saconnex", "ma": 90, "lat": 46.2347, "lon": 6.122}, {"name": "Gemeinde Tafers", "plz": "1712", "ort": "Tafers", "ma": 90, "lat": 46.8109, "lon": 7.2152}, {"name": "Dun & Bradstreet Schweiz AG", "plz": "8902", "ort": "Urdorf", "ma": 90, "lat": 47.3809, "lon": 8.4274}, {"name": "PensExpert AG", "plz": "6003", "ort": "Luzern", "ma": 90, "lat": 47.05, "lon": 8.297}, {"name": "Ritter Schumacher", "plz": "7000", "ort": "Chur", "ma": 90, "lat": 46.853, "lon": 9.5298}, {"name": "Mattig-Suter und Partner", "plz": "6431", "ort": "Schwyz", "ma": 90, "lat": 47.5651, "lon": 9.2414}, {"name": "urs schatt", "plz": "8374", "ort": "Oberwangen", "ma": 90, "lat": 47.4313, "lon": 8.9823}, {"name": "HERMITAGE AG", "plz": "6006", "ort": "Luzern", "ma": 90, "lat": 47.053, "lon": 8.3334}, {"name": "Thommen Medical AG", "plz": "2540", "ort": "Grenchen", "ma": 90, "lat": 47.2001, "lon": 7.38}, {"name": "Amt f\u00fcr Gemeinden und Raumordnung", "plz": "3011", "ort": "Bern", "ma": 90, "lat": 46.9472, "lon": 7.448}, {"name": "Spitex AareBielersee", "plz": "2557", "ort": "Studen", "ma": 90, "lat": 47.1136, "lon": 7.306}, {"name": "IMPAG AG", "plz": "8045", "ort": "Z\u00fcrich", "ma": 90, "lat": 47.3516, "lon": 8.5056}, {"name": "ecoinvent", "plz": "8005", "ort": "Zurich", "ma": 90, "lat": 47.3868, "lon": 8.5205}, {"name": "LEICOM", "plz": "8404", "ort": "Winterthur", "ma": 90, "lat": 47.5107, "lon": 8.7567}, {"name": "Gymnasium Burgdorf", "plz": "3400", "ort": "Burgdorf", "ma": 90, "lat": 47.0575, "lon": 7.6178}, {"name": "Gemeindeverwaltung Aesch BL", "plz": "4147", "ort": "Aesch", "ma": 90, "lat": 47.4695, "lon": 7.5818}, {"name": "Wicon AG", "plz": "9204", "ort": "Andwil", "ma": 90, "lat": 47.4382, "lon": 9.2836}, {"name": "Willers AG", "plz": "8048", "ort": "Z\u00fcrich", "ma": 90, "lat": 47.3867, "lon": 8.4838}, {"name": "Heim Weiermatte", "plz": "6122", "ort": "Menznau", "ma": 90, "lat": 47.0802, "lon": 8.0375}, {"name": "CFPS Seedorf", "plz": "1757", "ort": "Nor\u00e9az", "ma": 90, "lat": 46.8018, "lon": 7.0386}, {"name": "Robeco Switzerland Ltd.", "plz": "8005", "ort": "Z\u00fcrich", "ma": 90, "lat": 47.3868, "lon": 8.5205}, {"name": "Interkantonale Polizeischule Hitzkirch", "plz": "6285", "ort": "Hitzkirch", "ma": 90, "lat": 47.2239, "lon": 8.2639}, {"name": "Staatskanzlei Kanton St.Gallen", "plz": "9001", "ort": "St.Gallen", "ma": 90, "lat": 46.327, "lon": 7.7123}, {"name": "Lenzerheide Bergbahnen AG", "plz": "7078", "ort": "Lenzerheide", "ma": 90, "lat": 46.7346, "lon": 9.5454}, {"name": "traversa, Netzwerk f\u00fcr Menschen mit einer psychischen Erkrankung", "plz": "6005", "ort": "Luzern", "ma": 90, "lat": 47.0393, "lon": 8.3196}, {"name": "St\u00e4ubli Sargans AG", "plz": "7320", "ort": "Sargans", "ma": 90, "lat": 47.0543, "lon": 9.4488}, {"name": "TE Connectivity Solutions Gmbh, Standort Schaffner", "plz": "4542", "ort": "Luterbach", "ma": 90, "lat": 47.216, "lon": 7.5873}, {"name": "Bcomp Ltd.", "plz": "1700", "ort": "Fribourg", "ma": 90, "lat": 46.8043, "lon": 7.1649}, {"name": "Steinemann Technology AG", "plz": "9015", "ort": "St.Gallen", "ma": 90, "lat": 47.4103, "lon": 9.3089}, {"name": "Gemeinde Ebikon", "plz": "6031", "ort": "Ebikon", "ma": 90, "lat": 47.5115, "lon": 7.6941}, {"name": "Tophinke Automation & Geb\u00e4udetechnik AG", "plz": "6280", "ort": "Hochdorf", "ma": 90, "lat": 47.1698, "lon": 8.285}, {"name": "Alterszentrum Mellingen-Wohlenschwil", "plz": "5507", "ort": "Mellingen", "ma": 90, "lat": 47.4207, "lon": 8.2765}, {"name": "Alters- und Pflegeheim B\u00f6ndler", "plz": "8494", "ort": "Bauma", "ma": 90, "lat": 47.3664, "lon": 8.8919}, {"name": "SERV Schweizerische Exportrisikoversicherung", "plz": "8002", "ort": "Z\u00fcrich", "ma": 90, "lat": 47.3607, "lon": 8.5326}, {"name": "Polycontact AG", "plz": "7000", "ort": "Chur", "ma": 90, "lat": 46.853, "lon": 9.5298}, {"name": "Primarschule Altendorf", "plz": "8852", "ort": "Altendorf", "ma": 90, "lat": 47.1719, "lon": 8.8255}, {"name": "R\u00e9sidence les Epinettes", "plz": "1723", "ort": "Marly", "ma": 90, "lat": 46.7768, "lon": 7.1474}, {"name": "gebana", "plz": "8005", "ort": "Z\u00fcrich", "ma": 89, "lat": 47.3868, "lon": 8.5205}, {"name": "Caritas Z\u00fcrich", "plz": "8021", "ort": "Z\u00fcrich", "ma": 88, "lat": 46.2533, "lon": 7.9212}, {"name": "Schwihag AG", "plz": "8274", "ort": "T\u00e4gerwilen", "ma": 88, "lat": 47.6455, "lon": 9.1295}, {"name": "Medistri", "plz": "1564", "ort": "Domdidier", "ma": 87, "lat": 46.8614, "lon": 7.0161}, {"name": "Medewo AG", "plz": "5616", "ort": "Meisterschwanden", "ma": 87, "lat": 47.292, "lon": 8.2243}, {"name": "POLYPOINT AG", "plz": "3073", "ort": "G\u00fcmligen", "ma": 87, "lat": 46.9387, "lon": 7.5083}, {"name": "ATP Hydraulik AG", "plz": "6403", "ort": "K\u00fcssnacht am Rigi", "ma": 87, "lat": 47.081, "lon": 8.44}, {"name": "Gebr\u00fcder Egli Maschinen AG", "plz": "9512", "ort": "Rossr\u00fcti", "ma": 86, "lat": 47.4818, "lon": 9.0721}, {"name": "Swibox AG", "plz": "3175", "ort": "Flamatt", "ma": 86, "lat": 46.8875, "lon": 7.3067}, {"name": "Similasan AG", "plz": "8916", "ort": "Jonen", "ma": 85, "lat": 47.2998, "lon": 8.4009}, {"name": "KEBO AG", "plz": "8212", "ort": "Neuhausen", "ma": 85, "lat": 47.6788, "lon": 8.6051}, {"name": "Senevita M\u00fclibach", "plz": "8107", "ort": "Buchs ZH", "ma": 85, "lat": 47.4587, "lon": 8.4407}, {"name": "CEMEX Innovation Holding AG", "plz": "2555", "ort": "Br\u00fcgg", "ma": 85, "lat": 47.1277, "lon": 7.2824}, {"name": "Sinergy", "plz": "1920", "ort": "Martigny", "ma": 85, "lat": 46.1064, "lon": 7.0993}, {"name": "Acutronic Schweiz AG", "plz": "8608", "ort": "Bubikon", "ma": 85, "lat": 47.2713, "lon": 8.8063}, {"name": "WirnaVita AG", "plz": "5303", "ort": "W\u00fcrenlingen", "ma": 85, "lat": 47.5312, "lon": 8.2477}, {"name": "L\u00f6wenfels Partner AG", "plz": "6004", "ort": "Luzern", "ma": 85, "lat": 47.0602, "lon": 8.2981}, {"name": "W&W Immo Informatik AG", "plz": "8910", "ort": "Affoltern a.A.", "ma": 85, "lat": 47.2788, "lon": 8.4544}, {"name": "TopPharm Apotheken und Drogerien Genossenschaft", "plz": "4142", "ort": "M\u00fcnchenstein", "ma": 85, "lat": 47.5175, "lon": 7.6115}, {"name": "T+R AG", "plz": "3073", "ort": "G\u00fcmligen", "ma": 85, "lat": 46.9387, "lon": 7.5083}, {"name": "Spitex Region Schwyz", "plz": "6440", "ort": "Brunnen", "ma": 85, "lat": 46.9946, "lon": 8.5927}, {"name": "Bank SLM AG", "plz": "3110", "ort": "M\u00fcnsingen", "ma": 85, "lat": 46.8753, "lon": 7.5576}, {"name": "Fides Treasury Services AG", "plz": "8045", "ort": "Z\u00fcrich", "ma": 85, "lat": 47.3516, "lon": 8.5056}, {"name": "Heim St. Antonius", "plz": "8640", "ort": "Hurden", "ma": 85, "lat": 47.2239, "lon": 8.8193}, {"name": "BLP Digital", "plz": "8001", "ort": "Z\u00fcrich", "ma": 85, "lat": 47.3729, "lon": 8.5416}, {"name": "Sutter Ingenieur- und Planungsb\u00fcro AG", "plz": "4424", "ort": "Arboldswil", "ma": 85, "lat": 47.4165, "lon": 7.7192}, {"name": "RUWA Drahtschweisswerk AG", "plz": "3454", "ort": "Sumiswald", "ma": 85, "lat": 47.0368, "lon": 7.7433}, {"name": "Doktorzentrum Mutschellen", "plz": "8965", "ort": "Berikon", "ma": 85, "lat": 47.353, "lon": 8.387}, {"name": "Bommer + Partner Treuhand", "plz": "3000", "ort": "Bern 1", "ma": 85, "lat": 47.4104, "lon": 7.0657}, {"name": "Perspektive Thurgau (PTG)", "plz": "8570", "ort": "Weinfelden", "ma": 84, "lat": 47.5686, "lon": 9.1074}, {"name": "J\u00e4ckli Geologie AG", "plz": "5400", "ort": "Baden", "ma": 84, "lat": 47.4699, "lon": 8.2921}, {"name": "Planeco GmbH", "plz": "4144", "ort": "Arlesheim", "ma": 84, "lat": 47.4963, "lon": 7.6281}, {"name": "AMERON Luzern Hotel Flora", "plz": "6002", "ort": "Luzern", "ma": 83, "lat": 47.4759, "lon": 7.7338}, {"name": "WESCO AG", "plz": "5430", "ort": "Wettingen", "ma": 83, "lat": 47.4629, "lon": 8.3321}, {"name": "Stiftung Halden, Leben und Wohnen im Alter", "plz": "9016", "ort": "St. Gallen", "ma": 83, "lat": 47.4402, "lon": 9.4149}, {"name": "World Council of Churches", "plz": "1211", "ort": "Gen\u00e8ve 2", "ma": 82, "lat": 46.2971, "lon": 7.9041}, {"name": "Hombrechtikon Systems Engineering AG", "plz": "8634", "ort": "Hombrechtikon", "ma": 81, "lat": 47.2551, "lon": 8.7659}, {"name": "Stiftung Ulmenhof", "plz": "8913", "ort": "Ottenbach", "ma": 81, "lat": 47.2806, "lon": 8.4097}, {"name": "Doka Schweiz AG", "plz": "8155", "ort": "Niederhasli", "ma": 81, "lat": 47.4767, "lon": 8.4865}, {"name": "BBC Bircher AG", "plz": "8222", "ort": "Beringen", "ma": 80, "lat": 47.701, "lon": 8.5829}, {"name": "Zentrum Rheinauen", "plz": "9444", "ort": "Diepoldsau", "ma": 80, "lat": 47.3848, "lon": 9.6585}, {"name": "IRU", "plz": "1202", "ort": "Geneva", "ma": 80, "lat": 46.2215, "lon": 6.1489}, {"name": "ELA Basel", "plz": "4052", "ort": "Basel", "ma": 80, "lat": 47.545, "lon": 7.6091}, {"name": "Bezirk H\u00f6fe", "plz": "8807", "ort": "Freienbach", "ma": 80, "lat": 47.2066, "lon": 8.7571}, {"name": "HWZ Hochschule f\u00fcr Wirtschaft Z\u00fcrich", "plz": "8021", "ort": "Z\u00fcrich", "ma": 80, "lat": 46.2533, "lon": 7.9212}, {"name": "Z\u00fcrich Tourismus", "plz": "8001", "ort": "Z\u00fcrich", "ma": 80, "lat": 47.3729, "lon": 8.5416}, {"name": "Kongresshaus Z\u00fcrich AG", "plz": "8002", "ort": "Z\u00fcrich", "ma": 80, "lat": 47.3607, "lon": 8.5326}, {"name": "EHG / Ecole H\u00f4teli\u00e8re Gen\u00e8ve / Vieux Bois Sa / Trinquet", "plz": "1202", "ort": "GENEVE", "ma": 80, "lat": 46.2215, "lon": 6.1489}, {"name": "Gemeinde Wald ZH", "plz": "8636", "ort": "Wald", "ma": 80, "lat": 47.2833, "lon": 8.9258}, {"name": "pixon engineering AG", "plz": "3930", "ort": "Visp", "ma": 80, "lat": 46.2802, "lon": 7.8814}, {"name": "Verband \u00f6ffentlicher Verkehr / Alliance SwissPass", "plz": "3005", "ort": "Bern", "ma": 80, "lat": 46.9396, "lon": 7.4518}, {"name": "Wirtschaftsschule Thun", "plz": "3600", "ort": "Thun", "ma": 80, "lat": 46.7546, "lon": 7.623}, {"name": "Berufsfachschule des Detailhandels Bern", "plz": "3011", "ort": "Bern", "ma": 80, "lat": 46.9472, "lon": 7.448}, {"name": "Stiftung aarvital", "plz": "3270", "ort": "Aarberg", "ma": 80, "lat": 47.0444, "lon": 7.283}, {"name": "Trigonet AG", "plz": "6370", "ort": "Stans", "ma": 80, "lat": 46.9566, "lon": 8.3609}, {"name": "Tour de Suisse Rad AG", "plz": "8280", "ort": "Kreuzlingen", "ma": 80, "lat": 47.6406, "lon": 9.1756}, {"name": "Einwohnergemeinde Dornach", "plz": "4143", "ort": "Dornach", "ma": 80, "lat": 47.4762, "lon": 7.6252}, {"name": "Alpinamed AG", "plz": "9306", "ort": "Freidorf", "ma": 80, "lat": 47.485, "lon": 9.3876}, {"name": "Advellence Solutions AG", "plz": "8304", "ort": "Wallisellen", "ma": 80, "lat": 47.4199, "lon": 8.5913}, {"name": "Asyril", "plz": "1690", "ort": "Villaz-St-Pierre", "ma": 80, "lat": 46.7198, "lon": 6.9637}, {"name": "Zentrum Aettenb\u00fchl", "plz": "5643", "ort": "Sins", "ma": 80, "lat": 47.1972, "lon": 8.3942}, {"name": "Commune de Pr\u00e9verenges", "plz": "1028", "ort": "Pr\u00e9verenges", "ma": 80, "lat": 46.4815, "lon": 6.5307}, {"name": "achermann ict-services ag", "plz": "6010", "ort": "Kriens", "ma": 80, "lat": 47.0163, "lon": 8.269}, {"name": "Altersheim Rotmonten", "plz": "9010", "ort": "St. Gallen", "ma": 80, "lat": 47.4423, "lon": 9.3717}, {"name": "Aare Energie AG", "plz": "4600", "ort": "Olten", "ma": 80, "lat": 47.3412, "lon": 7.9022}, {"name": "Stadt Nidau", "plz": "2560", "ort": "Nidau", "ma": 80, "lat": 47.124, "lon": 7.2399}, {"name": "Connect Com AG", "plz": "6023", "ort": "Rothenburg", "ma": 80, "lat": 47.1032, "lon": 8.2671}, {"name": "Compass Security Network Computing AG", "plz": "8640", "ort": "Rapperswil", "ma": 80, "lat": 47.2239, "lon": 8.8193}, {"name": "Domino Graph-Tech AG", "plz": "4665", "ort": "Oftringen", "ma": 80, "lat": 47.313, "lon": 7.9379}, {"name": "Ambulance Clerc SA", "plz": "1870", "ort": "Monthey", "ma": 80, "lat": 46.2611, "lon": 6.9465}, {"name": "Einwohnergemeinde Derendingen", "plz": "4552", "ort": "Derendingen", "ma": 80, "lat": 47.1938, "lon": 7.5904}, {"name": "Tertianum Residenz Bellevue-Park", "plz": "3600", "ort": "Thun", "ma": 80, "lat": 46.7546, "lon": 7.623}, {"name": "Schmidlin Holzbau AG", "plz": "6422", "ort": "Steinen", "ma": 80, "lat": 47.0517, "lon": 8.6124}, {"name": "Stiftung Alters- und Pflegeheim Buchegg", "plz": "3074", "ort": "Muri b. Bern", "ma": 80, "lat": 46.927, "lon": 7.4862}, {"name": "Einwohnergemeinde Zuchwil", "plz": "4528", "ort": "Zuchwil", "ma": 80, "lat": 47.2061, "lon": 7.5621}, {"name": "JuAr Basel", "plz": "4058", "ort": "Basel", "ma": 80, "lat": 47.5677, "lon": 7.6135}, {"name": "Libera AG", "plz": "8022", "ort": "Z\u00fcrich", "ma": 80, "lat": 46.3053, "lon": 7.9565}, {"name": "HotellerieSuisse", "plz": "3001", "ort": "Bern", "ma": 80, "lat": 47.3597, "lon": 7.309}, {"name": "Pragmatica AG", "plz": "8048", "ort": "Z\u00fcrich", "ma": 80, "lat": 47.3867, "lon": 8.4838}, {"name": "Phoenix Contact AG", "plz": "8317", "ort": "Tagelswangen", "ma": 80, "lat": 47.4261, "lon": 8.6687}, {"name": "Aquila AG", "plz": "8001", "ort": "Z\u00fcrich", "ma": 80, "lat": 47.3729, "lon": 8.5416}, {"name": "Huwiler Gruppe", "plz": "3072", "ort": "Ostermundigen", "ma": 80, "lat": 46.9558, "lon": 7.4949}, {"name": "SMS Concast AG", "plz": "8027", "ort": "Z\u00fcrich", "ma": 80, "lat": 46.3051, "lon": 7.9576}, {"name": "Procap Schweiz", "plz": "4601", "ort": "Olten", "ma": 80, "lat": 46.2266, "lon": 7.8581}, {"name": "Stadtverwaltung Mellingen", "plz": "5507", "ort": "Mellingen", "ma": 80, "lat": 47.4207, "lon": 8.2765}, {"name": "United Nations Development Programme", "plz": "1211", "ort": "Geneva", "ma": 80, "lat": 46.2971, "lon": 7.9041}, {"name": "Witschi Electronic AG", "plz": "3294", "ort": "B\u00fcren an der Aare", "ma": 80, "lat": 47.1419, "lon": 7.3734}, {"name": "SPT Roth AG", "plz": "3250", "ort": "Lyss", "ma": 80, "lat": 47.0754, "lon": 7.3108}, {"name": "Renera AG", "plz": "4052", "ort": "Basel", "ma": 80, "lat": 47.545, "lon": 7.6091}, {"name": "Centre p\u00e9dagogique de Malvilliers", "plz": "2043", "ort": "Boudevilliers", "ma": 80, "lat": 47.0302, "lon": 6.8831}, {"name": "Hauert HBG D\u00fcnger AG", "plz": "3257", "ort": "Grossaffoltern", "ma": 80, "lat": 47.0731, "lon": 7.3708}, {"name": "Altersheim Schleitheim", "plz": "8226", "ort": "Schleitheim", "ma": 80, "lat": 47.7509, "lon": 8.5023}, {"name": "Seniorenzentrum M\u00fclimatt", "plz": "6317", "ort": "Oberwil b. Zug", "ma": 80, "lat": 47.1342, "lon": 8.5011}, {"name": "Gewinde Ziegler AG", "plz": "4557", "ort": "Horriwil", "ma": 80, "lat": 47.1805, "lon": 7.6222}, {"name": "Alterszentrum Scheidegg", "plz": "3360", "ort": "Herzogenbuchsee", "ma": 80, "lat": 47.1938, "lon": 7.7132}, {"name": "Heberlein Technology AG", "plz": "9630", "ort": "Wattwil", "ma": 80, "lat": 47.2916, "lon": 9.0686}, {"name": "Staatskanzlei Kanton Z\u00fcrich", "plz": "8090", "ort": "Z\u00fcrich", "ma": 80, "lat": 46.2527, "lon": 7.924}, {"name": "Wandfluh Produktions AG", "plz": "3714", "ort": "Frutigen", "ma": 80, "lat": 46.5845, "lon": 7.6364}, {"name": "Verkehrs-Club der Schweiz VCS", "plz": "3001", "ort": "Bern", "ma": 79, "lat": 47.3597, "lon": 7.309}, {"name": "Schulheim Schloss Erlach", "plz": "3235", "ort": "Erlach", "ma": 79, "lat": 47.051, "lon": 7.1112}, {"name": "Alterszentrum Eiche", "plz": "6252", "ort": "Dagmersellen", "ma": 79, "lat": 47.2142, "lon": 7.9854}, {"name": "Nature First AG", "plz": "8003", "ort": "Z\u00fcrich", "ma": 78, "lat": 47.3726, "lon": 8.5161}, {"name": "Liom Health AG", "plz": "8808", "ort": "Pf\u00e4ffikon", "ma": 78, "lat": 47.198, "lon": 8.7818}, {"name": "Magic Leap", "plz": "8050", "ort": "Z\u00fcrich", "ma": 77, "lat": 47.4119, "lon": 8.5508}, {"name": "Fritz LANDOLT AG", "plz": "8752", "ort": "N\u00e4fels", "ma": 77, "lat": 47.0821, "lon": 9.0108}, {"name": "PrismaLife AG", "plz": "9491", "ort": "Ruggell", "ma": 77, "lat": 47.2479, "lon": 9.5357}, {"name": "Fortimo AG", "plz": "9016", "ort": "St. Gallen", "ma": 77, "lat": 47.4402, "lon": 9.4149}, {"name": "Brinks Schweiz AG", "plz": "8058", "ort": "Z\u00fcrich-Flughafen", "ma": 77, "lat": 46.096, "lon": 7.4981}, {"name": "Berufsschule R\u00fcti", "plz": "8630", "ort": "R\u00fcti", "ma": 76, "lat": 47.2581, "lon": 8.8607}, {"name": "SNZ Ingenieure und Planer AG", "plz": "8050", "ort": "Z\u00fcrich", "ma": 75, "lat": 47.4119, "lon": 8.5508}, {"name": "Primarschule T\u00e4gelmoos", "plz": "8405", "ort": "Winterthur", "ma": 75, "lat": 47.4775, "lon": 8.7783}, {"name": "Selectchemie AG", "plz": "8038", "ort": "Z\u00fcrich", "ma": 75, "lat": 47.3405, "lon": 8.5375}, {"name": "Veolia Industry Building - Switzerland AG", "plz": "4057", "ort": "Basel", "ma": 75, "lat": 47.576, "lon": 7.5994}, {"name": "Arbenz RVT AG", "plz": "8500", "ort": "Frauenfeld", "ma": 75, "lat": 47.5605, "lon": 8.9038}, {"name": "Biognosys AG", "plz": "8952", "ort": "Schlieren", "ma": 75, "lat": 47.3946, "lon": 8.4455}, {"name": "Gadget Entertainment Group AG", "plz": "8004", "ort": "Z\u00fcrich", "ma": 75, "lat": 47.378, "lon": 8.5234}, {"name": "Meierh\u00f6fli", "plz": "6204", "ort": "Sempach", "ma": 75, "lat": 47.1402, "lon": 8.1936}, {"name": "Seniorenzentrum Sch\u00fcpfen", "plz": "3054", "ort": "Sch\u00fcpfen", "ma": 75, "lat": 47.0355, "lon": 7.3774}, {"name": "Wascosa AG", "plz": "6005", "ort": "Luzern", "ma": 75, "lat": 47.0393, "lon": 8.3196}, {"name": "UNOPS  Geneva", "plz": "1211", "ort": "Gen\u00e8ve", "ma": 75, "lat": 46.2971, "lon": 7.9041}, {"name": "Novellas Generationenhaus", "plz": "7324", "ort": "Vilters", "ma": 75, "lat": 47.0174, "lon": 9.4532}, {"name": "Sportzentrum Zuchwil", "plz": "4528", "ort": "Zuchwil", "ma": 75, "lat": 47.2061, "lon": 7.5621}, {"name": "Arcolor AG", "plz": "9104", "ort": "Waldstatt", "ma": 75, "lat": 47.3567, "lon": 9.2834}, {"name": "Schule Beringen", "plz": "8222", "ort": "Beringen", "ma": 75, "lat": 47.701, "lon": 8.5829}, {"name": "JORNS AG", "plz": "4932", "ort": "Lotzwil", "ma": 75, "lat": 47.1872, "lon": 7.7842}, {"name": "Werke am Z\u00fcrichsee AG", "plz": "8700", "ort": "K\u00fcsnacht ZH", "ma": 75, "lat": 47.3197, "lon": 8.5899}, {"name": "Grolimund + Partner AG", "plz": "3097", "ort": "Liebefeld-Bern", "ma": 75, "lat": 46.9309, "lon": 7.421}, {"name": "Raiffeisenbank Mittelthurgau", "plz": "8570", "ort": "Weinfelden", "ma": 74, "lat": 47.5686, "lon": 9.1074}, {"name": "Gemeinde Gaiserwald", "plz": "9030", "ort": "Abtwil", "ma": 74, "lat": 47.4274, "lon": 9.3128}, {"name": "UNICEF Schweiz & Liechtenstein", "plz": "8005", "ort": "Z\u00fcrich", "ma": 73, "lat": 47.3868, "lon": 8.5205}, {"name": "ALTERSZENTRUM INS", "plz": "3232", "ort": "Ins", "ma": 73, "lat": 47.0024, "lon": 7.1081}, {"name": "Stiftung Satis", "plz": "5703", "ort": "Seon", "ma": 73, "lat": 47.3487, "lon": 8.1543}, {"name": "Credaris AG", "plz": "8004", "ort": "Z\u00fcrich", "ma": 73, "lat": 47.378, "lon": 8.5234}, {"name": "B\u00e4chtold & Moor AG", "plz": "3006", "ort": "Bern", "ma": 72, "lat": 46.9466, "lon": 7.4707}, {"name": "Meanquest SA", "plz": "1024", "ort": "Ecublens", "ma": 72, "lat": 46.5286, "lon": 6.5575}, {"name": "Raiffeisenbank Wasseramt-Buchsi", "plz": "4552", "ort": "Derendingen", "ma": 72, "lat": 47.1938, "lon": 7.5904}, {"name": "Knorr-Bremse Rail Systems Schweiz AG", "plz": "8304", "ort": "Wallisellen", "ma": 72, "lat": 47.4199, "lon": 8.5913}, {"name": "Vereinigung Kantonaler Geb\u00e4udeversicherungen", "plz": "3011", "ort": "Bern", "ma": 72, "lat": 46.9472, "lon": 7.448}, {"name": "Schmid Hutter", "plz": "8200", "ort": "Schaffhausen", "ma": 71, "lat": 47.7171, "lon": 8.6211}, {"name": "VIAPLAN AG", "plz": "6210", "ort": "Sursee", "ma": 71, "lat": 47.1765, "lon": 8.105}, {"name": "Die Schweizerische Post AG - Stab", "plz": "3030", "ort": "Bern", "ma": 139, "lat": 47.1052, "lon": 7.86}, {"name": "LUNGE Z\u00dcRICH", "plz": "8058", "ort": "Z\u00fcrich-Flughafen", "ma": 70, "lat": 46.096, "lon": 7.4981}, {"name": "Spitex Burgdorf-Oberburg", "plz": "3400", "ort": "Burgdorf", "ma": 70, "lat": 47.0575, "lon": 7.6178}, {"name": "Brooks Europe AG", "plz": "8274", "ort": "T\u00e4gerwilen", "ma": 70, "lat": 47.6455, "lon": 9.1295}, {"name": "Senevita Gais", "plz": "5000", "ort": "Aarau", "ma": 70, "lat": 47.3899, "lon": 8.0462}, {"name": "WMS Reinach", "plz": "4153", "ort": "Reinach", "ma": 70, "lat": 47.5006, "lon": 7.5975}, {"name": "Energie Freiamt AG", "plz": "5630", "ort": "Muri", "ma": 70, "lat": 47.2734, "lon": 8.3386}, {"name": "A+B B\u00fcrsten-Technik AG", "plz": "9630", "ort": "Wattwil", "ma": 70, "lat": 47.2916, "lon": 9.0686}, {"name": "The Lutheran World Federation", "plz": "1218", "ort": "Le Grand-Saconnex, Geneve", "ma": 70, "lat": 46.2347, "lon": 6.122}, {"name": "Massnahmenzentrum Bitzi", "plz": "9607", "ort": "Mosnang", "ma": 70, "lat": 47.3609, "lon": 9.0411}, {"name": "SEV", "plz": "3000", "ort": "Bern 6", "ma": 70, "lat": 47.4104, "lon": 7.0657}, {"name": "Bieri Hydraulik AG", "plz": "3097", "ort": "Liebefeld", "ma": 70, "lat": 46.9309, "lon": 7.421}, {"name": "b.telligent Schweiz", "plz": "8004", "ort": "Z\u00fcrich", "ma": 70, "lat": 47.378, "lon": 8.5234}, {"name": "Wohn- und Pflegezentrum Eschlikon", "plz": "8360", "ort": "Eschlikon", "ma": 70, "lat": 47.4635, "lon": 8.9656}, {"name": "Verein Besmerhuus", "plz": "8280", "ort": "Kreuzlingen", "ma": 70, "lat": 47.6406, "lon": 9.1756}, {"name": "Einheitsgemeinde Diepoldsau - Gemeindehaus und Werkhof", "plz": "9444", "ort": "Diepoldsau", "ma": 70, "lat": 47.3848, "lon": 9.6585}, {"name": "Primarschule Oescher", "plz": "8702", "ort": "Zollikon", "ma": 70, "lat": 47.3419, "lon": 8.5753}, {"name": "Finanz-Logistik AG", "plz": "9000", "ort": "St. Gallen", "ma": 70, "lat": 47.4237, "lon": 9.3622}, {"name": "W+H AG", "plz": "3360", "ort": "Herzogenbuchsee", "ma": 70, "lat": 47.1938, "lon": 7.7132}, {"name": "Bacardi", "plz": "1217", "ort": "Meyrin", "ma": 70, "lat": 46.2333, "lon": 6.0723}, {"name": "LIST Technology AG", "plz": "4422", "ort": "Arisdorf", "ma": 70, "lat": 47.5083, "lon": 7.7663}, {"name": "Pensimo Management AG", "plz": "8031", "ort": "Z\u00fcrich", "ma": 70, "lat": 46.3047, "lon": 7.9572}, {"name": "Provisur Technologies GmbH", "plz": "9230", "ort": "Flawi", "ma": 70, "lat": 47.4091, "lon": 9.1869}, {"name": "Wegm\u00fcller AG", "plz": "8544", "ort": "Attikon", "ma": 70, "lat": 47.5372, "lon": 8.8005}, {"name": "Samuel Werder AG", "plz": "5106", "ort": "Veltheim", "ma": 70, "lat": 47.4306, "lon": 8.1457}, {"name": "IEM S.A.", "plz": "1228", "ort": "Plan-les-Ouates", "ma": 70, "lat": 46.1643, "lon": 6.1196}, {"name": "Ducksch Anliker AG", "plz": "4900", "ort": "Langenthal", "ma": 70, "lat": 47.2176, "lon": 7.7951}, {"name": "Bichler + Partner AG", "plz": "9630", "ort": "Wattwil", "ma": 70, "lat": 47.2916, "lon": 9.0686}, {"name": "Amt f\u00fcr Informatik und Organisation Kt. Zug", "plz": "6301", "ort": "Zug", "ma": 70, "lat": 46.1298, "lon": 7.7904}, {"name": "Murimoos werken und wohnen", "plz": "5630", "ort": "Muri", "ma": 70, "lat": 47.2734, "lon": 8.3386}, {"name": "SCAN - NE", "plz": "2043", "ort": "Boudevilliers", "ma": 70, "lat": 47.0302, "lon": 6.8831}, {"name": "Verband KVA Thurgau", "plz": "8570", "ort": "Weinfelden", "ma": 70, "lat": 47.5686, "lon": 9.1074}, {"name": "Kyos", "plz": "1208", "ort": "Gen\u00e8ve", "ma": 70, "lat": 46.1986, "lon": 6.1655}, {"name": "Breitenmoser Fleischspezialit\u00e4ten AG", "plz": "9050", "ort": "Appenzell", "ma": 70, "lat": 47.3246, "lon": 9.3982}, {"name": "CO Marly", "plz": "1723", "ort": "Marly", "ma": 70, "lat": 46.7768, "lon": 7.1474}, {"name": "schuel mure HPSM", "plz": "8576", "ort": "Mauren", "ma": 70, "lat": 47.5655, "lon": 9.1531}, {"name": "H\u00f6gger Systems AG", "plz": "9242", "ort": "Oberuzwil", "ma": 70, "lat": 47.429, "lon": 9.1207}, {"name": "Schule R\u00fcschlikon", "plz": "8803", "ort": "R\u00fcschlikon", "ma": 70, "lat": 47.3059, "lon": 8.5555}, {"name": "Goba AG, Mineralquelle und Manufaktur", "plz": "9108", "ort": "Gontenbad", "ma": 70, "lat": 47.3185, "lon": 9.3501}, {"name": "Pandinavia AG", "plz": "8302", "ort": "Kloten", "ma": 70, "lat": 47.4588, "lon": 8.5821}, {"name": "Schule Giswil", "plz": "6074", "ort": "Giswil", "ma": 70, "lat": 46.8365, "lon": 8.1206}, {"name": "Constri AG", "plz": "5107", "ort": "Schinznach-Dorf", "ma": 70, "lat": 47.4549, "lon": 8.1327}, {"name": "riposa AG Swiss Sleep", "plz": "8865", "ort": "Bilten", "ma": 70, "lat": 47.1485, "lon": 9.0107}, {"name": "SmartIT Services AG", "plz": "3008", "ort": "Bern", "ma": 70, "lat": 46.9451, "lon": 7.4139}, {"name": "zeka Zentrum Baden", "plz": "5405", "ort": "Baden-D\u00e4ttwil", "ma": 70, "lat": 47.4537, "lon": 8.2925}, {"name": "Schule Ettiswil", "plz": "6218", "ort": "Ettiswil", "ma": 70, "lat": 47.1493, "lon": 8.0187}, {"name": "RETEL Neuhausen AG", "plz": "8212", "ort": "Neuhausen am Rheinfall", "ma": 70, "lat": 47.6788, "lon": 8.6051}, {"name": "Raiffeisenbank Cham-Steinhausen", "plz": "6330", "ort": "Cham", "ma": 70, "lat": 47.1953, "lon": 8.4587}, {"name": "Universit\u00e4t Basel - Pflegewissenschaft", "plz": "4056", "ort": "Basel", "ma": 70, "lat": 47.5682, "lon": 7.5751}, {"name": "Fehlmann Architectes SA", "plz": "1110", "ort": "Morges", "ma": 70, "lat": 46.479, "lon": 6.5131}, {"name": "Textilcolor AG", "plz": "9475", "ort": "Sevelen", "ma": 70, "lat": 47.1329, "lon": 9.4543}, {"name": "Klett und Balmer AG", "plz": "6341", "ort": "Baar", "ma": 70, "lat": 46.2814, "lon": 7.4894}, {"name": "BRP European Distribution SA", "plz": "1006", "ort": "Lausanne", "ma": 70, "lat": 46.4799, "lon": 6.6354}, {"name": "Wavestone Switzerland SA", "plz": "1212", "ort": "Lancy", "ma": 70, "lat": 46.1774, "lon": 6.121}, {"name": "JAEGGI Hybridtechnologie AG", "plz": "4051", "ort": "Basel", "ma": 70, "lat": 47.5542, "lon": 7.5867}, {"name": "Fondation Les Buissonnets", "plz": "1700", "ort": "Freiburg", "ma": 70, "lat": 46.8043, "lon": 7.1649}, {"name": "Beiersdorf AG", "plz": "4051", "ort": "Basel", "ma": 70, "lat": 47.5542, "lon": 7.5867}, {"name": "A. Baggenstos & Co. AG", "plz": "8304", "ort": "Wallisellen", "ma": 70, "lat": 47.4199, "lon": 8.5913}, {"name": "Uniola AG", "plz": "8032", "ort": "Z\u00fcrich", "ma": 70, "lat": 47.3667, "lon": 8.5645}, {"name": "SWISCA AG", "plz": "9230", "ort": "Flawil", "ma": 70, "lat": 47.4091, "lon": 9.1869}, {"name": "Vivale Lindenhof", "plz": "2552", "ort": "Orpund", "ma": 70, "lat": 47.1419, "lon": 7.3013}, {"name": "Pro Infirmis Aargau-Basel-Solothurn", "plz": "5001", "ort": "Aarau", "ma": 70, "lat": 47.4076, "lon": 7.0365}, {"name": "Enotrac AG", "plz": "3600", "ort": "Thun", "ma": 70, "lat": 46.7546, "lon": 7.623}, {"name": "bb trading werbeartikel ag", "plz": "8953", "ort": "Dietikon", "ma": 70, "lat": 47.4014, "lon": 8.389}, {"name": "g+m elektronik ag", "plz": "9245", "ort": "Oberb\u00fcren", "ma": 69, "lat": 47.4503, "lon": 9.1707}, {"name": "Numab Therapeutics AG", "plz": "8810", "ort": "Horgen", "ma": 69, "lat": 47.2494, "lon": 8.6096}, {"name": "Blutspende SRK Schweiz AG", "plz": "3097", "ort": "Liebefeld", "ma": 69, "lat": 46.9309, "lon": 7.421}, {"name": "Alterszentrum Rotenwies", "plz": "9056", "ort": "Gais", "ma": 69, "lat": 47.3697, "lon": 9.4637}, {"name": "CDR-Life AG", "plz": "8810", "ort": "Horgen", "ma": 68, "lat": 47.2494, "lon": 8.6096}, {"name": "FIPOI - Fondation pour les immeubles des organisations internationales", "plz": "1211", "ort": "Gen\u00e8ve", "ma": 68, "lat": 46.2971, "lon": 7.9041}, {"name": "EPRO GROUP AG", "plz": "3073", "ort": "G\u00fcmligen", "ma": 68, "lat": 46.9387, "lon": 7.5083}, {"name": "Alterszentrum zur Rose", "plz": "8864", "ort": "Reichenburg", "ma": 67, "lat": 47.16, "lon": 8.9717}, {"name": "Forbo Siegling Schweiz AG", "plz": "4323", "ort": "Wallbach", "ma": 67, "lat": 47.5683, "lon": 7.8959}, {"name": "Pro Infirmis Kantonale Gesch\u00e4ftsstelle Z\u00fcrich", "plz": "8048", "ort": "Z\u00fcrich", "ma": 67, "lat": 47.3867, "lon": 8.4838}, {"name": "B\u00fcrgergemeinde Solothurn", "plz": "4500", "ort": "Solothurn", "ma": 66, "lat": 47.2073, "lon": 7.5294}, {"name": "Ferrari Architectes Lausanne SA", "plz": "1002", "ort": "Lausanne", "ma": 66, "lat": 47.5241, "lon": 7.684}, {"name": "kenova AG", "plz": "4528", "ort": "Zuchwil", "ma": 66, "lat": 47.2061, "lon": 7.5621}, {"name": "Jenni Energietechnik AG", "plz": "3414", "ort": "Oberburg bei Burgdorf", "ma": 66, "lat": 47.0142, "lon": 7.6087}, {"name": "Flying Teachers GmbH", "plz": "8001", "ort": "Z\u00fcrich", "ma": 65, "lat": 47.3729, "lon": 8.5416}, {"name": "Anex", "plz": "8005", "ort": "Z\u00fcrich", "ma": 65, "lat": 47.3868, "lon": 8.5205}, {"name": "Ammeraal Beltech AG", "plz": "8645", "ort": "Jona", "ma": 65, "lat": 47.2297, "lon": 8.8516}, {"name": "Fortisa AG", "plz": "4528", "ort": "Zuchwil", "ma": 65, "lat": 47.2061, "lon": 7.5621}, {"name": "MULTIVAC Export AG", "plz": "6331", "ort": "H\u00fcnenberg", "ma": 65, "lat": 47.2014, "lon": 8.4116}, {"name": "GIETZ AG", "plz": "9200", "ort": "Gossau", "ma": 65, "lat": 47.4203, "lon": 9.2571}, {"name": "B\u00fcchler Reinli + Spitzli AG", "plz": "9230", "ort": "Flawil", "ma": 65, "lat": 47.4091, "lon": 9.1869}, {"name": "Sprachi Unter\u00e4geri", "plz": "6314", "ort": "6314 Unter\u00e4geri", "ma": 65, "lat": 47.1185, "lon": 8.5867}, {"name": "Edorex AG", "plz": "3072", "ort": "Ostermundigen", "ma": 65, "lat": 46.9558, "lon": 7.4949}, {"name": "Technowood AG", "plz": "9656", "ort": "Alt St. Johann", "ma": 65, "lat": 47.1799, "lon": 9.2656}, {"name": "AVM Innovations AG", "plz": "9615", "ort": "Dietfurt", "ma": 65, "lat": 47.3381, "lon": 9.0721}, {"name": "Lungenliga Aargau", "plz": "5001", "ort": "Aarau", "ma": 65, "lat": 47.4076, "lon": 7.0365}, {"name": "swissuniversities", "plz": "3000", "ort": "Bern 1", "ma": 65, "lat": 47.4104, "lon": 7.0657}, {"name": "Digmesa AG", "plz": "2563", "ort": "Ipsach", "ma": 65, "lat": 47.1148, "lon": 7.2329}, {"name": "SIGRIST-PHOTOMETER AG", "plz": "6373", "ort": "Ennetb\u00fcrgen", "ma": 65, "lat": 46.9945, "lon": 8.4335}, {"name": "Light Chain Bioscience - Novimmune SA", "plz": "1228", "ort": "Plan-les-ouates", "ma": 65, "lat": 46.1643, "lon": 6.1196}, {"name": "Cavelti AG", "plz": "9201", "ort": "Gossau", "ma": 65, "lat": 46.2337, "lon": 7.2649}, {"name": "Banque du L\u00e9man", "plz": "1201", "ort": "Gen\u00e8ve", "ma": 65, "lat": 46.2103, "lon": 6.1467}, {"name": "KONTEXTPLAN AG", "plz": "3011", "ort": "Bern", "ma": 65, "lat": 46.9472, "lon": 7.448}, {"name": "Fondation Gen\u00e8ve Tourisme & Congr\u00e8s", "plz": "1201", "ort": "Gen\u00e8ve", "ma": 65, "lat": 46.2103, "lon": 6.1467}, {"name": "Inauen-Sch\u00e4tti AG", "plz": "8762", "ort": "Schwanden", "ma": 65, "lat": 46.9671, "lon": 9.0997}, {"name": "Mathis AG", "plz": "8156", "ort": "Oberhasli", "ma": 65, "lat": 47.4608, "lon": 8.5005}, {"name": "Seniorama Oberhofen", "plz": "3653", "ort": "Oberhofen am Thunersee", "ma": 65, "lat": 46.7314, "lon": 7.6731}, {"name": "Auwiesen Immobilien AG", "plz": "8406", "ort": "Winterthur", "ma": 65, "lat": 47.4833, "lon": 8.6969}, {"name": "Tiba AG", "plz": "4410", "ort": "Liestal", "ma": 65, "lat": 47.4831, "lon": 7.7253}, {"name": "Regimo Z\u00fcrich AG", "plz": "8048", "ort": "Z\u00fcrich", "ma": 65, "lat": 47.3867, "lon": 8.4838}, {"name": "Ladenbau Schmidt AG", "plz": "4402", "ort": "Frenkendorf", "ma": 65, "lat": 47.5023, "lon": 7.7063}, {"name": "Allotherm AG", "plz": "3645", "ort": "Gwatt", "ma": 65, "lat": 46.7228, "lon": 7.6208}, {"name": "Schweizerischer Baumeisterverband", "plz": "8006", "ort": "Z\u00fcrich", "ma": 64, "lat": 47.3858, "lon": 8.5432}, {"name": "BERING AG", "plz": "3000", "ort": "Bern 22", "ma": 64, "lat": 47.4104, "lon": 7.0657}, {"name": "Gemeinde D\u00fcdingen", "plz": "3186", "ort": "D\u00fcdingen", "ma": 63, "lat": 46.8494, "lon": 7.188}, {"name": "VC999 Verpackungssysteme AG", "plz": "9100", "ort": "Herisau", "ma": 63, "lat": 47.3792, "lon": 9.2876}, {"name": "Uhde Inventa-Fischer AG", "plz": "7013", "ort": "Domat/Ems", "ma": 62, "lat": 46.8198, "lon": 9.4507}, {"name": "Wohnenbern", "plz": "3008", "ort": "Bern", "ma": 62, "lat": 46.9451, "lon": 7.4139}, {"name": "Beck Lyner AG", "plz": "8408", "ort": "Winterthur", "ma": 62, "lat": 47.5076, "lon": 8.683}, {"name": "Spida", "plz": "8044", "ort": "Z\u00fcrich", "ma": 62, "lat": 47.3803, "lon": 8.573}, {"name": "Bach Heiden AG", "plz": "9427", "ort": "Wolfhalden", "ma": 62, "lat": 47.4505, "lon": 9.5644}, {"name": "Fondation Campus Biotech Geneva (FCBG)", "plz": "1202", "ort": "Gen\u00e8ve", "ma": 61, "lat": 46.2215, "lon": 6.1489}, {"name": "Celeroton AG", "plz": "8604", "ort": "Volketswil", "ma": 61, "lat": 47.3949, "lon": 8.6819}, {"name": "innosolv AG", "plz": "9015", "ort": "St. Gallen", "ma": 61, "lat": 47.4103, "lon": 9.3089}, {"name": "Schulinternat Ringlikon", "plz": "8142", "ort": "Uitikon Waldegg", "ma": 60, "lat": 47.3667, "lon": 8.4549}, {"name": "FIVE Informatik AG", "plz": "3322", "ort": "Sch\u00f6nb\u00fchl", "ma": 60, "lat": 47.0195, "lon": 7.5034}, {"name": "Lyc\u00e9e Blaise-Cendrars", "plz": "2300", "ort": "La Chaux-de-Fonds", "ma": 60, "lat": 47.1181, "lon": 6.835}, {"name": "die werke versorgung wallisellen ag", "plz": "8304", "ort": "Wallisellen", "ma": 60, "lat": 47.4199, "lon": 8.5913}, {"name": "Gemeindeverwaltung Meggen", "plz": "6045", "ort": "Meggen", "ma": 60, "lat": 47.0441, "lon": 8.3747}, {"name": "Bezirksgericht Meilen", "plz": "8706", "ort": "Meilen", "ma": 60, "lat": 47.2778, "lon": 8.6376}, {"name": "inpeek AG", "plz": "3008", "ort": "Bern", "ma": 60, "lat": 46.9451, "lon": 7.4139}, {"name": "ENERGY MANAGEMENT SA", "plz": "1228", "ort": "Plan-les-Ouates", "ma": 60, "lat": 46.1643, "lon": 6.1196}, {"name": "CAS Architektur AG", "plz": "6010", "ort": "Kriens", "ma": 60, "lat": 47.0163, "lon": 8.269}, {"name": "Gemeinde Eschenbach SG", "plz": "8733", "ort": "Eschenbach", "ma": 60, "lat": 47.245, "lon": 8.9197}, {"name": "Volpi AG", "plz": "8953", "ort": "Dietikon", "ma": 60, "lat": 47.4014, "lon": 8.389}, {"name": "SMA und Partner AG", "plz": "8050", "ort": "Z\u00fcrich", "ma": 60, "lat": 47.4119, "lon": 8.5508}, {"name": "Tekhne SA", "plz": "1700", "ort": "Fribourg", "ma": 60, "lat": 46.8043, "lon": 7.1649}, {"name": "APSS Software & Services", "plz": "8050", "ort": "Z\u00fcrich", "ma": 60, "lat": 47.4119, "lon": 8.5508}, {"name": "Norma Reiden AG", "plz": "6260", "ort": "Reiden", "ma": 60, "lat": 47.2439, "lon": 7.9768}, {"name": "Glaeser-Muemliswil AG", "plz": "4717", "ort": "M\u00fcmliswil", "ma": 60, "lat": 47.3438, "lon": 7.7143}, {"name": "simatec ag", "plz": "3380", "ort": "Wangen an der Aare", "ma": 60, "lat": 47.2317, "lon": 7.6476}, {"name": "Bechtle Suisse SA", "plz": "1110", "ort": "Morges", "ma": 60, "lat": 46.479, "lon": 6.5131}, {"name": "GAUTSCHI SPEZIALITAETEN AG", "plz": "3427", "ort": "Utzenstorf", "ma": 60, "lat": 47.1242, "lon": 7.5646}, {"name": "OptoTech AG", "plz": "4528", "ort": "Zuchwil", "ma": 60, "lat": 47.2061, "lon": 7.5621}, {"name": "Lumiphase AG", "plz": "8712", "ort": "St\u00e4fa", "ma": 60, "lat": 47.2404, "lon": 8.7217}, {"name": "Oberstufe Frick", "plz": "5070", "ort": "Frick", "ma": 60, "lat": 47.5079, "lon": 8.012}, {"name": "AQIPTECH AG", "plz": "4147", "ort": "Aesch", "ma": 60, "lat": 47.4695, "lon": 7.5818}, {"name": "Save the Children", "plz": "8005", "ort": "Z\u00fcrich", "ma": 60, "lat": 47.3868, "lon": 8.5205}, {"name": "Biketec GmbH", "plz": "4950", "ort": "Huttwil", "ma": 60, "lat": 47.1102, "lon": 7.8566}, {"name": "Zentralw\u00e4scherei Chur", "plz": "7000", "ort": "Chur", "ma": 60, "lat": 46.853, "lon": 9.5298}, {"name": "SI-TEC GmbH", "plz": "4310", "ort": "Rheinfelden", "ma": 60, "lat": 47.5511, "lon": 7.7979}, {"name": "Stiftung Monikaheim", "plz": "8057", "ort": "Z\u00fcrich", "ma": 60, "lat": 47.3998, "lon": 8.5475}, {"name": "Glas Tr\u00f6sch AG, Zweigniederlassung Steffisburg", "plz": "3613", "ort": "Steffisburg", "ma": 60, "lat": 46.773, "lon": 7.6134}, {"name": "Bezirks-Sparkasse Dielsdorf", "plz": "8157", "ort": "Dielsdorf", "ma": 60, "lat": 47.4755, "lon": 8.4552}, {"name": "Mobatime AG", "plz": "8600", "ort": "D\u00fcbendorf", "ma": 60, "lat": 47.3928, "lon": 8.621}, {"name": "Gemeindeverwaltung Sirnach", "plz": "8370", "ort": "Sirnach", "ma": 60, "lat": 47.4616, "lon": 8.9987}, {"name": "ILF Beratende Ingenieure AG", "plz": "8048", "ort": "Z\u00fcrich", "ma": 60, "lat": 47.3867, "lon": 8.4838}, {"name": "Helbling Technik Aarau AG", "plz": "5000", "ort": "Aarau", "ma": 60, "lat": 47.3899, "lon": 8.0462}, {"name": "Brand Metallbau AG", "plz": "6467", "ort": "Schattdorf", "ma": 60, "lat": 46.8573, "lon": 8.6547}, {"name": "Hamilton International Ltd.", "plz": "2504", "ort": "Bienne", "ma": 60, "lat": 47.1572, "lon": 7.2812}, {"name": "Ontinue AG", "plz": "8045", "ort": "Zurich", "ma": 60, "lat": 47.3516, "lon": 8.5056}, {"name": "Association Les Travers\u00e9es", "plz": "1700", "ort": "Fribourg", "ma": 60, "lat": 46.8043, "lon": 7.1649}, {"name": "Association Arabelle", "plz": "1213", "ort": "Onex", "ma": 60, "lat": 46.1932, "lon": 6.1168}, {"name": "B\u00dcRGE-FISCHER AG", "plz": "5745", "ort": "Safenwil", "ma": 60, "lat": 47.3213, "lon": 7.9864}, {"name": "Freies Gymnasium Bern", "plz": "3012", "ort": "Bern", "ma": 60, "lat": 46.9609, "lon": 7.4255}, {"name": "Niesenbahn AG", "plz": "3711", "ort": "M\u00fclenen", "ma": 60, "lat": 46.6524, "lon": 7.6842}, {"name": "ETVJ (Ecole Technique Vall\u00e9e de Joux)", "plz": "1347", "ort": "Le Sentier", "ma": 60, "lat": 46.6123, "lon": 6.1998}, {"name": "Cudos AG", "plz": "8951", "ort": "Fahrweid", "ma": 60, "lat": 47.4109, "lon": 8.4178}, {"name": "T\u00fcrenfabrik Brunegg AG", "plz": "5505", "ort": "Brunegg", "ma": 60, "lat": 47.4212, "lon": 8.2186}, {"name": "Lungenliga Ost", "plz": "9008", "ort": "St. Gallen", "ma": 60, "lat": 47.4431, "lon": 9.3921}, {"name": "B\u00e4lliz Apotheke + Drogerie AG", "plz": "3600", "ort": "Thun", "ma": 60, "lat": 46.7546, "lon": 7.623}, {"name": "Sekundarschule Wallr\u00fcti", "plz": "8404", "ort": "Winterthur", "ma": 60, "lat": 47.5107, "lon": 8.7567}, {"name": "Ingenieurbureau Heierli AG", "plz": "8006", "ort": "Z\u00fcrich", "ma": 59, "lat": 47.3858, "lon": 8.5432}, {"name": "Commune du Chenit", "plz": "1347", "ort": "Le Sentier", "ma": 59, "lat": 46.6123, "lon": 6.1998}, {"name": "Ecosens AG", "plz": "8304", "ort": "Wallisellen", "ma": 59, "lat": 47.4199, "lon": 8.5913}, {"name": "Leutenegger + Frei AG", "plz": "9204", "ort": "Andwil SG", "ma": 59, "lat": 47.4382, "lon": 9.2836}, {"name": "PERSPEKTIVE Region Solothurn-Grenchen", "plz": "4500", "ort": "Solothurn", "ma": 59, "lat": 47.2073, "lon": 7.5294}, {"name": "Die Schweizerische Post AG - Konzernrevision", "plz": "3030", "ort": "Bern", "ma": 29, "lat": 47.1052, "lon": 7.86}, {"name": "VTX Services SA", "plz": "1009", "ort": "Pully", "ma": 58, "lat": 46.4793, "lon": 6.6542}, {"name": "TeamWork Schweiz AG", "plz": "3014", "ort": "Bern", "ma": 57, "lat": 46.9621, "lon": 7.4583}, {"name": "Rentsch Partner AG", "plz": "8008", "ort": "Z\u00fcrich", "ma": 57, "lat": 47.3536, "lon": 8.5614}, {"name": "EPS Software Engineering AG", "plz": "9500", "ort": "Wil", "ma": 57, "lat": 47.4631, "lon": 9.0496}, {"name": "Turbo-Separator AG", "plz": "9630", "ort": "Wattwil", "ma": 57, "lat": 47.2916, "lon": 9.0686}, {"name": "Holle baby food AG", "plz": "4125", "ort": "Riehen", "ma": 57, "lat": 47.5808, "lon": 7.6536}, {"name": "smart dynamic ag", "plz": "3006", "ort": "Bern", "ma": 56, "lat": 46.9466, "lon": 7.4707}, {"name": "Valais/Wallis Promotion", "plz": "1951", "ort": "Sion", "ma": 56, "lat": 47.1171, "lon": 7.8408}, {"name": "SUNCAR", "plz": "8952", "ort": "Schlieren", "ma": 55, "lat": 47.3946, "lon": 8.4455}, {"name": "Planora AG", "plz": "5000", "ort": "Aarau", "ma": 55, "lat": 47.3899, "lon": 8.0462}, {"name": "Gemeindeverwaltung Balgach", "plz": "9436", "ort": "Balgach", "ma": 55, "lat": 47.3928, "lon": 9.6111}, {"name": "VfA - Verein f\u00fcr Abfallentsorgung", "plz": "9470", "ort": "Buchs SG", "ma": 55, "lat": 47.165, "lon": 9.4758}, {"name": "Raboud Group", "plz": "1630", "ort": "Bulle", "ma": 55, "lat": 46.5971, "lon": 7.0076}, {"name": "Geberit Fabrication SA", "plz": "1762", "ort": "Givisiez", "ma": 55, "lat": 46.813, "lon": 7.126}, {"name": "Industrielle Betriebe Interlaken", "plz": "3800", "ort": "Interlaken", "ma": 55, "lat": 46.6842, "lon": 7.8786}, {"name": "Heimatt Gruppe", "plz": "6003", "ort": "Luzern", "ma": 55, "lat": 47.05, "lon": 8.297}, {"name": "ERR AG", "plz": "9000", "ort": "St. Gallen", "ma": 55, "lat": 47.4237, "lon": 9.3622}, {"name": "Gemeinde Herrliberg", "plz": "8704", "ort": "Herrliberg", "ma": 55, "lat": 47.2944, "lon": 8.6262}, {"name": "Bad Sonder", "plz": "9053", "ort": "Teufen", "ma": 55, "lat": 47.3895, "lon": 9.4007}, {"name": "WEKA AG", "plz": "8344", "ort": "B\u00e4retswil", "ma": 55, "lat": 47.3404, "lon": 8.8736}, {"name": "Coopers Group AG", "plz": "4052", "ort": "Basel", "ma": 55, "lat": 47.545, "lon": 7.6091}, {"name": "Einwohnergemeinde Konolfingen", "plz": "3510", "ort": "Konolfingen", "ma": 55, "lat": 46.8812, "lon": 7.6107}, {"name": "Alterszentrum Chestenberg", "plz": "5103", "ort": "Wildegg", "ma": 55, "lat": 47.4166, "lon": 8.1673}, {"name": "Trachsel Zeltner Architekten AG", "plz": "3600", "ort": "Thun", "ma": 55, "lat": 46.7546, "lon": 7.623}, {"name": "HxGN Schweiz AG", "plz": "8048", "ort": "Z\u00fcrich", "ma": 55, "lat": 47.3867, "lon": 8.4838}, {"name": "H&R Gastro AG", "plz": "3800", "ort": "Interlaken", "ma": 55, "lat": 46.6842, "lon": 7.8786}, {"name": "Trek Fahrrad GmbH", "plz": "8600", "ort": "D\u00fcbendorf", "ma": 55, "lat": 47.3928, "lon": 8.621}, {"name": "Schulhaus Petermoos", "plz": "8107", "ort": "Buchs ZH", "ma": 55, "lat": 47.4587, "lon": 8.4407}, {"name": "Eurofins Scientific AG", "plz": "5012", "ort": "Sch\u00f6nenwerd", "ma": 55, "lat": 47.3734, "lon": 8.0095}, {"name": "Gemeindeverwaltung Wangen-Br\u00fcttisellen", "plz": "8306", "ort": "Br\u00fcttisellen", "ma": 54, "lat": 47.4221, "lon": 8.6371}, {"name": "bbp geomatik ag", "plz": "3073", "ort": "G\u00fcmligen", "ma": 54, "lat": 46.9387, "lon": 7.5083}, {"name": "Scheuss & Partner AG", "plz": "8051", "ort": "Z\u00fcrich", "ma": 54, "lat": 47.3996, "lon": 8.5788}, {"name": "Verband Schweizerischer Schreinermeister und M\u00f6belfabrikanten VSSM", "plz": "8304", "ort": "Wallisellen", "ma": 54, "lat": 47.4199, "lon": 8.5913}, {"name": "Genossenschaft Regiomech", "plz": "4528", "ort": "Zuchwil", "ma": 54, "lat": 47.2061, "lon": 7.5621}, {"name": "Raiffeisenbank Mittelrheintal", "plz": "9443", "ort": "Widnau", "ma": 54, "lat": 47.4001, "lon": 9.6375}, {"name": "Meyer Burger (Switzerland) AG", "plz": "3645", "ort": "Gwatt (Thun)", "ma": 53, "lat": 46.7228, "lon": 7.6208}, {"name": "RICO Sicherheitstechnik AG", "plz": "9100", "ort": "Herisau", "ma": 53, "lat": 47.3792, "lon": 9.2876}, {"name": "PZM Z\u00fcrich AG", "plz": "8048", "ort": "8048 - Z\u00fcrich-Altstetten", "ma": 52, "lat": 47.3867, "lon": 8.4838}, {"name": "Primarschule Zentralhaus", "plz": "8155", "ort": "Niederhasli", "ma": 52, "lat": 47.4767, "lon": 8.4865}, {"name": "Sunnen AG", "plz": "8586", "ort": "Ennetaach-Erlen", "ma": 52, "lat": 47.5492, "lon": 9.234}, {"name": "BROTHER", "plz": "5405", "ort": "D\u00e4ttwil AG", "ma": 52, "lat": 47.4537, "lon": 8.2925}, {"name": "LCA Automation AG", "plz": "6403", "ort": "K\u00fcssnacht am Rigi", "ma": 51, "lat": 47.081, "lon": 8.44}, {"name": "Union Patronale du Canton de Fribourg", "plz": "1700", "ort": "Fribourg", "ma": 51, "lat": 46.8043, "lon": 7.1649}, {"name": "Thomson Reuters Enterprise Centre GmbH", "plz": "6300", "ort": "Zug", "ma": 150, "lat": 47.167, "lon": 8.5049}, {"name": "MGB, MSM, MFMAG", "plz": "8031", "ort": "Z\u00fcrich", "ma": 95000, "lat": 46.3047, "lon": 7.9572}, {"name": "Gemeinde Trubschachen", "plz": "3555", "ort": "Trubschachen", "ma": 50, "lat": 46.9117, "lon": 7.8428}, {"name": "Josef Lehmann Holzbau AG", "plz": "5425", "ort": "Schneisingen", "ma": 50, "lat": 47.528, "lon": 8.3666}, {"name": "Weber + Br\u00f6nnimann Bauingenieure AG", "plz": "3007", "ort": "Bern", "ma": 50, "lat": 46.9393, "lon": 7.4342}, {"name": "EVTEC AG", "plz": "6012", "ort": "Kriens", "ma": 50, "lat": 47.0185, "lon": 8.2339}, {"name": "World Aquatics", "plz": "1005", "ort": "Lausanne", "ma": 50, "lat": 46.5231, "lon": 6.6413}, {"name": "Kontaktaufnahme. Burghof Pestalozzi-Jugendst\u00e4tte", "plz": "8157", "ort": "Dielsdorf", "ma": 50, "lat": 47.4755, "lon": 8.4552}, {"name": "Reformierte Kirchgemeinde Muri G\u00fcmligen", "plz": "3074", "ort": "Muri", "ma": 50, "lat": 46.927, "lon": 7.4862}, {"name": "Police cantonale Fribourg", "plz": "1763", "ort": "Granges-Paccot", "ma": 50, "lat": 46.8224, "lon": 7.1537}, {"name": "Gemeinde R\u00fcthi", "plz": "9464", "ort": "R\u00fcthi", "ma": 50, "lat": 47.2933, "lon": 9.5367}, {"name": "Infometis AG", "plz": "8006", "ort": "Z\u00fcrich", "ma": 50, "lat": 47.3858, "lon": 8.5432}, {"name": "Hintere Matten", "plz": "4107", "ort": "Ettingen", "ma": 50, "lat": 47.4749, "lon": 7.5443}, {"name": "srg | engineering", "plz": "1052", "ort": "Le Mont-sur-Lausanne", "ma": 50, "lat": 46.559, "lon": 6.6397}, {"name": "Pont12 Architectes SA", "plz": "1022", "ort": "Chavannes-pr\u00e8s-Renens", "ma": 50, "lat": 46.5293, "lon": 6.573}, {"name": "Corintis SA", "plz": "1015", "ort": "Lausanne", "ma": 50, "lat": 46.5173, "lon": 6.583}, {"name": "inova:solutions AG", "plz": "3072", "ort": "Ostermundigen", "ma": 50, "lat": 46.9558, "lon": 7.4949}, {"name": "Colt Technology Services AG", "plz": "8048", "ort": "Z\u00fcrich", "ma": 50, "lat": 47.3867, "lon": 8.4838}, {"name": "kawe ag", "plz": "5417", "ort": "Untersiggenthal", "ma": 50, "lat": 47.5038, "lon": 8.2562}, {"name": "c+s ingenieure ag", "plz": "3415", "ort": "Hasle b.B.", "ma": 50, "lat": 46.991, "lon": 7.645}, {"name": "Gemeindeverwaltung Wohlen bei Bern", "plz": "3033", "ort": "Wohlen bei Bern", "ma": 50, "lat": 46.9741, "lon": 7.3495}, {"name": "Baitella AG", "plz": "8050", "ort": "Z\u00fcrich", "ma": 50, "lat": 47.4119, "lon": 8.5508}, {"name": "Gemeindeverwaltung Lindau", "plz": "8315", "ort": "Lindau", "ma": 50, "lat": 47.4436, "lon": 8.6774}, {"name": "Gemeinde Uetikon am See", "plz": "8707", "ort": "Uetikon am See", "ma": 50, "lat": 47.2669, "lon": 8.6806}, {"name": "Jermann AG", "plz": "4144", "ort": "Arlesheim", "ma": 50, "lat": 47.4963, "lon": 7.6281}, {"name": "Vivell Schwimmbadtechnik", "plz": "4616", "ort": "Kappel", "ma": 50, "lat": 47.321, "lon": 7.8567}, {"name": "Association REPER", "plz": "1700", "ort": "Fribourg", "ma": 50, "lat": 46.8043, "lon": 7.1649}, {"name": "ONE swiss bank", "plz": "1202", "ort": "Gen\u00e8ve", "ma": 50, "lat": 46.2215, "lon": 6.1489}, {"name": "Rettungsdienst Zug (RDZ)", "plz": "6301", "ort": "Zug", "ma": 50, "lat": 46.1298, "lon": 7.7904}, {"name": "PoliTrempe SA", "plz": "2830", "ort": "Courrendlin", "ma": 50, "lat": 47.3339, "lon": 7.3784}, {"name": "Primarschule Wichtrach", "plz": "3114", "ort": "Wichtrach", "ma": 50, "lat": 46.8438, "lon": 7.5813}, {"name": "Spitex Uri", "plz": "6467", "ort": "Schattdorf", "ma": 50, "lat": 46.8573, "lon": 8.6547}, {"name": "Seniorenzentrum Uzwil", "plz": "9244", "ort": "Niederuzwil", "ma": 50, "lat": 47.4441, "lon": 9.1443}, {"name": "Schnetzer Puskas Ingenieure AG", "plz": "4010", "ort": "Basel", "ma": 50, "lat": 46.2701, "lon": 7.8799}, {"name": "Favre + Guth", "plz": "1227", "ort": "Gen\u00e8ve", "ma": 50, "lat": 46.1795, "lon": 6.1423}, {"name": "Technische Betriebe Weinfelden AG", "plz": "8570", "ort": "Weinfelden", "ma": 50, "lat": 47.5686, "lon": 9.1074}, {"name": "Gilead Sciences Switzerland S\u00e0rl", "plz": "6300", "ort": "Zug", "ma": 50, "lat": 47.167, "lon": 8.5049}, {"name": "Fondation Id\u00e9eSport", "plz": "1007", "ort": "Lausanne", "ma": 50, "lat": 46.4814, "lon": 6.6075}, {"name": "EFD Staatssekretariat f\u00fcr internationale Finanzfragen", "plz": "3003", "ort": "Bern", "ma": 50, "lat": 47.1185, "lon": 7.8297}, {"name": "EOSS SA", "plz": "1110", "ort": "Morges", "ma": 50, "lat": 46.479, "lon": 6.5131}, {"name": "\u00d6ffentliche Arbeitslosenkasse Basel-Landschaft", "plz": "4132", "ort": "Muttenz", "ma": 50, "lat": 47.5228, "lon": 7.6465}, {"name": "Stiftung MBF", "plz": "4332", "ort": "Stein", "ma": 50, "lat": 47.545, "lon": 7.9552}, {"name": "LogObject AG", "plz": "8152", "ort": "Opfikon", "ma": 50, "lat": 47.4332, "lon": 8.5616}, {"name": "SANITIZED AG", "plz": "3400", "ort": "Burgdorf", "ma": 50, "lat": 47.0575, "lon": 7.6178}, {"name": "Stadtverwaltung Buchs SG", "plz": "9471", "ort": "Buchs SG", "ma": 50, "lat": 46.2729, "lon": 7.4049}, {"name": "Stiftung W\u00e4smeli", "plz": "6006", "ort": "Luzern", "ma": 50, "lat": 47.053, "lon": 8.3334}, {"name": "Sensopro AG", "plz": "3110", "ort": "M\u00fcnsingen", "ma": 50, "lat": 46.8753, "lon": 7.5576}, {"name": "AlixPartners", "plz": "8002", "ort": "Z\u00fcrich", "ma": 50, "lat": 47.3607, "lon": 8.5326}, {"name": "Amcor Flexibles Kreuzlingen AG", "plz": "8280", "ort": "Kreuzlingen", "ma": 50, "lat": 47.6406, "lon": 9.1756}, {"name": "Schulverlag plus AG", "plz": "3006", "ort": "Bern", "ma": 50, "lat": 46.9466, "lon": 7.4707}, {"name": "A. Leiser AG", "plz": "6260", "ort": "Reiden", "ma": 50, "lat": 47.2439, "lon": 7.9768}, {"name": "Alfred Imhof AG", "plz": "4142", "ort": "M\u00fcnchenstein", "ma": 50, "lat": 47.5175, "lon": 7.6115}, {"name": "B\u00e4chtelen Stiftung", "plz": "3084", "ort": "K\u00f6niz", "ma": 50, "lat": 46.9219, "lon": 7.4556}, {"name": "Transitec", "plz": "1006", "ort": "Lausanne", "ma": 50, "lat": 46.4799, "lon": 6.6354}, {"name": "TIT-PIT GmbH", "plz": "8320", "ort": "Fehraltorf", "ma": 50, "lat": 47.3846, "lon": 8.7516}, {"name": "Ubique Innovation AG", "plz": "8001", "ort": "Z\u00fcrich", "ma": 50, "lat": 47.3729, "lon": 8.5416}, {"name": "CyOne Security AG", "plz": "6312", "ort": "Steinhausen", "ma": 50, "lat": 47.1987, "lon": 8.4848}, {"name": "Threema GmbH", "plz": "8808", "ort": "Pf\u00e4ffikon", "ma": 50, "lat": 47.198, "lon": 8.7818}, {"name": "Gemeinde Arlesheim", "plz": "4144", "ort": "Arlesheim", "ma": 50, "lat": 47.4963, "lon": 7.6281}, {"name": "Gesundheitsdirektion Veterin\u00e4ramt des Kantons Z\u00fcrich", "plz": "8090", "ort": "Z\u00fcrich", "ma": 50, "lat": 46.2527, "lon": 7.924}, {"name": "BLACKROLL AG", "plz": "8598", "ort": "Bottighofen", "ma": 50, "lat": 47.6391, "lon": 9.212}, {"name": "Commune de Veyrier", "plz": "1255", "ort": "Veyrier", "ma": 50, "lat": 46.169, "lon": 6.18}, {"name": "Sandvik AG", "plz": "6005", "ort": "Luzern", "ma": 50, "lat": 47.0393, "lon": 8.3196}, {"name": "soRec Gruppe", "plz": "9200", "ort": "Gossau", "ma": 50, "lat": 47.4203, "lon": 9.2571}, {"name": "Direktion f\u00fcr V\u00f6lkerrecht", "plz": "3003", "ort": "Bern", "ma": 50, "lat": 47.1185, "lon": 7.8297}, {"name": "Schulen St. Michael Zug AG", "plz": "6300", "ort": "Zug", "ma": 50, "lat": 47.167, "lon": 8.5049}, {"name": "Polytronic International AG", "plz": "5630", "ort": "Muri", "ma": 50, "lat": 47.2734, "lon": 8.3386}, {"name": "Gemeinde Thal", "plz": "9425", "ort": "Thal", "ma": 50, "lat": 47.4731, "lon": 9.5661}, {"name": "s-peers AG", "plz": "8274", "ort": "T\u00e4gerwilen", "ma": 50, "lat": 47.6455, "lon": 9.1295}, {"name": "Primarschule Neerach", "plz": "8173", "ort": "Neerach", "ma": 50, "lat": 47.5107, "lon": 8.4747}, {"name": "Gemeinde Mels", "plz": "8887", "ort": "Mels", "ma": 50, "lat": 47.0263, "lon": 9.3897}, {"name": "Zug Estates AG", "plz": "6300", "ort": "Zug", "ma": 50, "lat": 47.167, "lon": 8.5049}, {"name": "Gemeindeverwaltung Kirchberg", "plz": "3422", "ort": "Kirchberg", "ma": 50, "lat": 47.087, "lon": 7.5856}, {"name": "Kapag Karton + Papier AG", "plz": "5037", "ort": "Muhen", "ma": 50, "lat": 47.3341, "lon": 8.0632}, {"name": "Onsemi", "plz": "2074", "ort": "Lat\u00e9na", "ma": 50, "lat": 46.9948, "lon": 7.0134}, {"name": "SmartWave SA", "plz": "1290", "ort": "Versoix", "ma": 50, "lat": 46.2912, "lon": 6.1561}, {"name": "SKK Landschaftsarchitekten", "plz": "5430", "ort": "Wettingen", "ma": 50, "lat": 47.4629, "lon": 8.3321}, {"name": "intercycle ag", "plz": "6210", "ort": "Sursee", "ma": 50, "lat": 47.1765, "lon": 8.105}, {"name": "Sekundarschule Erlen", "plz": "6020", "ort": "Emmenbr\u00fccke", "ma": 50, "lat": 47.0782, "lon": 8.2584}, {"name": "b+d ingenieure", "plz": "3612", "ort": "Steffisburg", "ma": 50, "lat": 46.7827, "lon": 7.6382}, {"name": "Stadt Bischofszell", "plz": "9220", "ort": "Bischofszell", "ma": 50, "lat": 47.4961, "lon": 9.2415}, {"name": "GGZ@Work", "plz": "6300", "ort": "Zug", "ma": 50, "lat": 47.167, "lon": 8.5049}, {"name": "dhp technology AG", "plz": "7205", "ort": "Zizers", "ma": 50, "lat": 46.9399, "lon": 9.5608}, {"name": "Gemeindeverwaltung Neuenhof", "plz": "5432", "ort": "Neuenhof", "ma": 50, "lat": 47.4438, "lon": 8.3234}, {"name": "Bruno's Best AG", "plz": "6060", "ort": "Sarnen", "ma": 50, "lat": 46.9011, "lon": 8.2505}, {"name": "Zweckverband SNH", "plz": "8810", "ort": "Horgen", "ma": 50, "lat": 47.2494, "lon": 8.6096}, {"name": "Schule Balgach", "plz": "9436", "ort": "Balgach", "ma": 50, "lat": 47.3928, "lon": 9.6111}, {"name": "Primarschule Teufen", "plz": "9053", "ort": "Teufen", "ma": 50, "lat": 47.3895, "lon": 9.4007}, {"name": "Esri Schweiz AG", "plz": "8005", "ort": "Z\u00fcrich", "ma": 50, "lat": 47.3868, "lon": 8.5205}, {"name": "\u00c9cole d'Ecublens", "plz": "1024", "ort": "Ecublens", "ma": 50, "lat": 46.5286, "lon": 6.5575}, {"name": "Schule Muhen", "plz": "5037", "ort": "Muhen", "ma": 50, "lat": 47.3341, "lon": 8.0632}, {"name": "Gemeinde Niederhasli", "plz": "8155", "ort": "Niederhasli", "ma": 50, "lat": 47.4767, "lon": 8.4865}, {"name": "Jampen Holzbau AG", "plz": "8335", "ort": "Hittnau", "ma": 50, "lat": 47.3662, "lon": 8.8314}, {"name": "Apps with love AG", "plz": "3007", "ort": "Bern", "ma": 50, "lat": 46.9393, "lon": 7.4342}, {"name": "Econetta AG", "plz": "8952", "ort": "Schlieren", "ma": 50, "lat": 47.3946, "lon": 8.4455}, {"name": "Primarschule Niederg\u00f6sgen", "plz": "5013", "ort": "Niederg\u00f6sgen", "ma": 50, "lat": 47.3749, "lon": 7.9843}, {"name": "o'bloc AG", "plz": "3072", "ort": "Ostermundigen", "ma": 50, "lat": 46.9558, "lon": 7.4949}, {"name": "Schule Opfikon", "plz": "8152", "ort": "Opfikon", "ma": 50, "lat": 47.4332, "lon": 8.5616}, {"name": "Codan Argus & Codan Medical", "plz": "6340", "ort": "Baar", "ma": 50, "lat": 47.1975, "lon": 8.5311}, {"name": "Sekundarschule Ruggenacher", "plz": "8105", "ort": "Regensdorf", "ma": 50, "lat": 47.4352, "lon": 8.4672}, {"name": "OS D\u00fcdingen", "plz": "3186", "ort": "D\u00fcdingen", "ma": 50, "lat": 46.8494, "lon": 7.188}, {"name": "Raiffeisenbank Z\u00fcrich Flughafen", "plz": "8302", "ort": "Kloten", "ma": 50, "lat": 47.4588, "lon": 8.5821}, {"name": "Genossenschaft KORN.HAUS", "plz": "8374", "ort": "Dussnang", "ma": 50, "lat": 47.4313, "lon": 8.9823}, {"name": "Qualitas & Braunvieh Schweiz", "plz": "6300", "ort": "Zug", "ma": 50, "lat": 47.167, "lon": 8.5049}, {"name": "Blattner AG", "plz": "8274", "ort": "T\u00e4gerwilen", "ma": 50, "lat": 47.6455, "lon": 9.1295}, {"name": "Gravis Robotics", "plz": "8050", "ort": "Z\u00fcrich", "ma": 50, "lat": 47.4119, "lon": 8.5508}, {"name": "Sekundarschule R\u00fcti", "plz": "8630", "ort": "R\u00fcti", "ma": 50, "lat": 47.2581, "lon": 8.8607}, {"name": "PROTON AG", "plz": "1228", "ort": "Plan-les-Ouates", "ma": 50, "lat": 46.1643, "lon": 6.1196}, {"name": "Ewellix Switzerland AG", "plz": "4410", "ort": "Liestal", "ma": 50, "lat": 47.4831, "lon": 7.7253}, {"name": "Oberstufe Sins", "plz": "5643", "ort": "Sins", "ma": 50, "lat": 47.1972, "lon": 8.3942}, {"name": "SORA R\u00f6tel", "plz": "8037", "ort": "Z\u00fcrich", "ma": 50, "lat": 47.3966, "lon": 8.5237}, {"name": "Zentrum Guggerbach", "plz": "7270", "ort": "Davos Platz", "ma": 50, "lat": 46.7854, "lon": 9.8133}, {"name": "IB-Murten", "plz": "3280", "ort": "Murten", "ma": 50, "lat": 46.9286, "lon": 7.1347}, {"name": "SmartTalk", "plz": "6004", "ort": "Luzern", "ma": 50, "lat": 47.0602, "lon": 8.2981}, {"name": "Ortek AG", "plz": "5634", "ort": "Merenschwand", "ma": 50, "lat": 47.2646, "lon": 8.382}, {"name": "UNITED school of sports", "plz": "8048", "ort": "Z\u00fcrich", "ma": 50, "lat": 47.3867, "lon": 8.4838}, {"name": "Gemeinde Wattwil", "plz": "9630", "ort": "Wattwil", "ma": 50, "lat": 47.2916, "lon": 9.0686}, {"name": "FTI, Fondation pour les Terrains Industriels de Gen\u00e8ve", "plz": "1227", "ort": "Carouge", "ma": 50, "lat": 46.1795, "lon": 6.1423}, {"name": "S&P Global Switzerland SA", "plz": "8001", "ort": "Zurich", "ma": 50, "lat": 47.3729, "lon": 8.5416}, {"name": "EXPERTsuisse", "plz": "8004", "ort": "Z\u00fcrich", "ma": 50, "lat": 47.378, "lon": 8.5234}, {"name": "Elektrizit\u00e4tswerk Jona-Rapperswil AG", "plz": "8645", "ort": "Rapperswil-Jona", "ma": 50, "lat": 47.2297, "lon": 8.8516}, {"name": "Praxisklinik Rennbahn AG", "plz": "4132", "ort": "Muttenz", "ma": 50, "lat": 47.5228, "lon": 7.6465}, {"name": "rheinspringen", "plz": "9001", "ort": "St. Gallen", "ma": 50, "lat": 46.327, "lon": 7.7123}, {"name": "Rudolf Keller & Partner Verkehrsingenieure AG", "plz": "4132", "ort": "Muttenz", "ma": 50, "lat": 47.5228, "lon": 7.6465}, {"name": "Chinderhuus Simsala", "plz": "5210", "ort": "Windisch", "ma": 50, "lat": 47.4762, "lon": 8.2166}, {"name": "Primarschule Wittenbach", "plz": "9300", "ort": "Wittenbach", "ma": 50, "lat": 47.4657, "lon": 9.3844}, {"name": "Gemeindeverwaltung Br\u00fcgg", "plz": "2555", "ort": "Br\u00fcgg", "ma": 50, "lat": 47.1277, "lon": 7.2824}, {"name": "Einwohnergemeinde Biberist", "plz": "4562", "ort": "Biberist", "ma": 50, "lat": 47.1791, "lon": 7.5591}, {"name": "Sieber Cassina + Partner AG", "plz": "8400", "ort": "Winterthur", "ma": 50, "lat": 47.4911, "lon": 8.7373}, {"name": "Hotel Engimatt", "plz": "8002", "ort": "Z\u00fcrich", "ma": 50, "lat": 47.3607, "lon": 8.5326}, {"name": "Soci\u00e9t\u00e9 coop\u00e9rative d'habitation Gen\u00e8ve", "plz": "1203", "ort": "Gen\u00e8ve", "ma": 50, "lat": 46.2085, "lon": 6.1236}, {"name": "iart ag", "plz": "4142", "ort": "M\u00fcnchenstein", "ma": 50, "lat": 47.5175, "lon": 7.6115}, {"name": "Viscom Engineering AG", "plz": "8910", "ort": "Affoltern am Albis", "ma": 50, "lat": 47.2788, "lon": 8.4544}, {"name": "Rykart Architekten AG", "plz": "3097", "ort": "K\u00f6niz", "ma": 50, "lat": 46.9309, "lon": 7.421}, {"name": "PS D\u00fcdingen", "plz": "3186", "ort": "D\u00fcdingen", "ma": 50, "lat": 46.8494, "lon": 7.188}, {"name": "Celanese Production Switzerland AG", "plz": "5054", "ort": "Moosleerau", "ma": 50, "lat": 47.2768, "lon": 8.0731}, {"name": "Kaufmann AG", "plz": "6410", "ort": "Goldau", "ma": 50, "lat": 47.0475, "lon": 8.5408}, {"name": "B\u00fcro f\u00fcr Bau\u00f6konomie AG", "plz": "6010", "ort": "Kriens", "ma": 50, "lat": 47.0163, "lon": 8.269}, {"name": "Z\u00fcrcher Ziegeleien AG", "plz": "8105", "ort": "Regensdorf", "ma": 50, "lat": 47.4352, "lon": 8.4672}, {"name": "MaxWell Biosystems", "plz": "8047", "ort": "Z\u00fcrich", "ma": 50, "lat": 47.3739, "lon": 8.487}, {"name": "Spitex Region Romanshorn", "plz": "8590", "ort": "Romanshorn", "ma": 50, "lat": 47.601, "lon": 9.4002}, {"name": "Buss ChemTech AG", "plz": "4133", "ort": "Pratteln", "ma": 50, "lat": 47.5174, "lon": 7.6941}, {"name": "ARTISET", "plz": "3007", "ort": "Bern", "ma": 50, "lat": 46.9393, "lon": 7.4342}, {"name": "Schule Stammheim", "plz": "8477", "ort": "Oberstammheim", "ma": 50, "lat": 47.6273, "lon": 8.7977}, {"name": "STC Switzerland Travel Centre AG", "plz": "8045", "ort": "Z\u00fcrich", "ma": 50, "lat": 47.3516, "lon": 8.5056}, {"name": "Gattlen Geb\u00e4udetechnik", "plz": "3930", "ort": "Visp", "ma": 50, "lat": 46.2802, "lon": 7.8814}, {"name": "Gemeindeverwaltung B\u00fcren a.A.", "plz": "3294", "ort": "B\u00fcren an der Aare", "ma": 50, "lat": 47.1419, "lon": 7.3734}, {"name": "Gemeindeverwaltung Kaiseraugst", "plz": "4303", "ort": "Kaiseraugst", "ma": 50, "lat": 47.5357, "lon": 7.7418}, {"name": "Pronatec AG", "plz": "8409", "ort": "Winterthur", "ma": 50, "lat": 47.5046, "lon": 8.7739}, {"name": "LIAO AG Pflegezentrum Feld", "plz": "6208", "ort": "Oberkirch", "ma": 50, "lat": 47.153, "lon": 8.111}, {"name": "EWD Elektrizit\u00e4tswerk Davos AG", "plz": "7270", "ort": "Davos Platz", "ma": 50, "lat": 46.7854, "lon": 9.8133}, {"name": "Raiffeisenbank Regio Uzwil", "plz": "9244", "ort": "Niederuzwil", "ma": 50, "lat": 47.4441, "lon": 9.1443}, {"name": "Schutz & Intervention Winterthur", "plz": "8400", "ort": "Winterthur", "ma": 50, "lat": 47.4911, "lon": 8.7373}, {"name": "Alois Scherrer AG", "plz": "9430", "ort": "St. Margrethen", "ma": 50, "lat": 47.4552, "lon": 9.6255}, {"name": "Bern Welcome", "plz": "3011", "ort": "Bern", "ma": 50, "lat": 46.9472, "lon": 7.448}, {"name": "Gemeinde Ennetb\u00fcrgen", "plz": "6373", "ort": "Ennetb\u00fcrgen", "ma": 50, "lat": 46.9945, "lon": 8.4335}, {"name": "Raiffeisenbank Basel", "plz": "4002", "ort": "Basel", "ma": 50, "lat": 46.3863, "lon": 7.6415}, {"name": "Primarschule Steinen", "plz": "6422", "ort": "Steinen", "ma": 50, "lat": 47.0517, "lon": 8.6124}, {"name": "Glas Tr\u00f6sch AG Zweigniederlassung FIRESWISS Buochs", "plz": "6374", "ort": "Buochs", "ma": 50, "lat": 46.9645, "lon": 8.4227}, {"name": "Tofwerk", "plz": "3645", "ort": "Thun", "ma": 50, "lat": 46.7228, "lon": 7.6208}, {"name": "Gemeindeverwaltung Buchs ZH", "plz": "8107", "ort": "Buchs", "ma": 50, "lat": 47.4587, "lon": 8.4407}, {"name": "Rafisa Informatik GmbH", "plz": "6340", "ort": "Baar", "ma": 50, "lat": 47.1975, "lon": 8.5311}, {"name": "Gemeindeverwaltung Adligenswil", "plz": "6043", "ort": "Adligenswil", "ma": 50, "lat": 47.0718, "lon": 8.3684}, {"name": "HPS Lenzburg", "plz": "5600", "ort": "Lenzburg", "ma": 50, "lat": 47.3855, "lon": 8.1875}, {"name": "Commune de Confignon", "plz": "1232", "ort": "Confignon", "ma": 50, "lat": 46.1778, "lon": 6.0871}, {"name": "Raiffeisenbank Aare-Reuss", "plz": "5507", "ort": "Mellingen", "ma": 49, "lat": 47.4207, "lon": 8.2765}, {"name": "DOPAG", "plz": "6330", "ort": "Cham", "ma": 49, "lat": 47.1953, "lon": 8.4587}, {"name": "Schwab-Feller AG", "plz": "3294", "ort": "B\u00fcren a. Aare", "ma": 49, "lat": 47.1419, "lon": 7.3734}, {"name": "Bank BSU Genossenschaft", "plz": "8610", "ort": "Uster", "ma": 49, "lat": 47.3527, "lon": 8.7227}, {"name": "Contec AG", "plz": "3661", "ort": "Uetendorf", "ma": 49, "lat": 46.7759, "lon": 7.5772}, {"name": "Oberstufe Ennetgraben", "plz": "8910", "ort": "Affoltern am Albis", "ma": 49, "lat": 47.2788, "lon": 8.4544}, {"name": "Schweizer Hagel", "plz": "8001", "ort": "Z\u00fcrich", "ma": 49, "lat": 47.3729, "lon": 8.5416}, {"name": "PMOD/WRC", "plz": "7270", "ort": "Davos Dorf", "ma": 49, "lat": 46.7854, "lon": 9.8133}, {"name": "Hogrefe AG", "plz": "3012", "ort": "Bern", "ma": 49, "lat": 46.9609, "lon": 7.4255}, {"name": "InformatikLeistungsZentrum OW/NW (ILZ)", "plz": "6060", "ort": "Sarnen", "ma": 49, "lat": 46.9011, "lon": 8.2505}, {"name": "Kalkfabrik Netstal AG", "plz": "8754", "ort": "Netstal", "ma": 49, "lat": 47.066, "lon": 9.051}, {"name": "Geozug Ingenieure AG", "plz": "6340", "ort": "Baar", "ma": 49, "lat": 47.1975, "lon": 8.5311}, {"name": "Raiffeisenbank Gossau-Andwil-Niederwil", "plz": "9200", "ort": "Gossau", "ma": 49, "lat": 47.4203, "lon": 9.2571}, {"name": "Ribi + Blum AG", "plz": "8590", "ort": "Romanshorn", "ma": 49, "lat": 47.601, "lon": 9.4002}, {"name": "Novoplast AG", "plz": "4323", "ort": "Wallbach", "ma": 48, "lat": 47.5683, "lon": 7.8959}, {"name": "Raiffeisen Nyon-La Vall\u00e9e", "plz": "1260", "ort": "Nyon 1", "ma": 48, "lat": 46.3833, "lon": 6.2327}, {"name": "Schule Gais", "plz": "9056", "ort": "Gais", "ma": 48, "lat": 47.3697, "lon": 9.4637}, {"name": "Spontis SA", "plz": "1580", "ort": "Avenches", "ma": 48, "lat": 46.8906, "lon": 7.042}, {"name": "Clientis AG", "plz": "3011", "ort": "Bern", "ma": 48, "lat": 46.9472, "lon": 7.448}, {"name": "Schule und Gemeinde Ennetbaden", "plz": "5408", "ort": "Ennetbaden", "ma": 48, "lat": 47.4797, "lon": 8.3276}, {"name": "Eidgen\u00f6ssische Spielbankenkommission ESBK", "plz": "3003", "ort": "Bern", "ma": 47, "lat": 47.1185, "lon": 7.8297}, {"name": "Stiftung intact", "plz": "3401", "ort": "Burgdorf", "ma": 47, "lat": 46.4053, "lon": 7.7901}, {"name": "Klingelnberg AG", "plz": "8050", "ort": "Z\u00fcrich", "ma": 47, "lat": 47.4119, "lon": 8.5508}, {"name": "Verein f\u00fcr betreutes Wohnen (BEWO)", "plz": "9604", "ort": "L\u00fctisburg", "ma": 47, "lat": 47.4049, "lon": 9.1301}, {"name": "hep verlag ag", "plz": "3011", "ort": "Bern", "ma": 47, "lat": 46.9472, "lon": 7.448}, {"name": "dss+", "plz": "1290", "ort": "Versoix", "ma": 47, "lat": 46.2912, "lon": 6.1561}, {"name": "GEVAG", "plz": "7203", "ort": "Trimmis", "ma": 47, "lat": 46.8899, "lon": 9.5669}, {"name": "BKW AEK Contracting AG", "plz": "4502", "ort": "Solothurn", "ma": 47, "lat": 47.529, "lon": 7.6835}, {"name": "Musikschule Worblental / Kiesental", "plz": "3076", "ort": "Worb", "ma": 47, "lat": 46.9309, "lon": 7.5645}, {"name": "Basel Tourismus", "plz": "4051", "ort": "Basel", "ma": 47, "lat": 47.5542, "lon": 7.5867}, {"name": "Biovision Stiftung", "plz": "8005", "ort": "Z\u00fcrich", "ma": 47, "lat": 47.3868, "lon": 8.5205}, {"name": "Teva Pharmaceuticals International GmbH", "plz": "8645", "ort": "Jona", "ma": 46, "lat": 47.2297, "lon": 8.8516}, {"name": "Kreisschule Mittelg\u00f6sgen", "plz": "4653", "ort": "Oberg\u00f6sgen", "ma": 46, "lat": 47.3634, "lon": 7.9527}, {"name": "Alters- und Pflegeheim St. Martin", "plz": "7408", "ort": "Cazis", "ma": 46, "lat": 46.7403, "lon": 9.4256}, {"name": "Z\u00fcrcher Verkehrsverbund ZVV", "plz": "8090", "ort": "Z\u00fcrich", "ma": 46, "lat": 46.2527, "lon": 7.924}, {"name": "Genossenschaft Migros Ostschweiz", "plz": "9201", "ort": "Gossau SG", "ma": 10000, "lat": 46.2337, "lon": 7.2649}, {"name": "Genossenschaft Migros Aare", "plz": "3321", "ort": "Sch\u00f6nb\u00fchl", "ma": 8000, "lat": 46.2139, "lon": 7.8974}, {"name": "Naturama Aargau", "plz": "5000", "ort": "Aarau", "ma": 45, "lat": 47.3899, "lon": 8.0462}, {"name": "Banque Raiffeisen Morges Venoge", "plz": "1025", "ort": "St-Sulpice", "ma": 45, "lat": 46.4816, "lon": 6.5623}, {"name": "E3 Zentralschweiz AG", "plz": "6010", "ort": "Kriens", "ma": 45, "lat": 47.0163, "lon": 8.269}, {"name": "Schule Leep\u00fcnt", "plz": "8108", "ort": "D\u00e4llikon", "ma": 45, "lat": 47.4388, "lon": 8.4323}, {"name": "IPS - Integrated Project Services GmbH", "plz": "4052", "ort": "Basel", "ma": 45, "lat": 47.545, "lon": 7.6091}, {"name": "Friedlipartner AG", "plz": "8050", "ort": "Z\u00fcrich", "ma": 45, "lat": 47.4119, "lon": 8.5508}, {"name": "Pasta R\u00f6thlin AG", "plz": "6064", "ort": "Kerns", "ma": 45, "lat": 46.9064, "lon": 8.3022}, {"name": "netplusfr", "plz": "1630", "ort": "Bulle", "ma": 45, "lat": 46.5971, "lon": 7.0076}, {"name": "Beer Grill AG", "plz": "5612", "ort": "Villmergen", "ma": 45, "lat": 47.3485, "lon": 8.2419}, {"name": "Optimatik AG", "plz": "9053", "ort": "Teufen", "ma": 45, "lat": 47.3895, "lon": 9.4007}, {"name": "Firma werk14", "plz": "3455", "ort": "Gr\u00fcnen", "ma": 45, "lat": 47.0217, "lon": 7.7381}, {"name": "Payrexx AG", "plz": "3600", "ort": "Thun", "ma": 45, "lat": 46.7546, "lon": 7.623}, {"name": "Robert Rieffel", "plz": "8304", "ort": "Wallisellen", "ma": 45, "lat": 47.4199, "lon": 8.5913}, {"name": "ELEX AG", "plz": "8603", "ort": "Schwerzenbach", "ma": 45, "lat": 47.3812, "lon": 8.6536}, {"name": "TOPNET SA", "plz": "1212", "ort": "Lancy", "ma": 45, "lat": 46.1774, "lon": 6.121}, {"name": "Raiffeisenbank Aadorf", "plz": "8355", "ort": "Aadorf", "ma": 45, "lat": 47.4931, "lon": 8.9045}, {"name": "DIHAWAG AG", "plz": "2504", "ort": "Biel/Bienne", "ma": 45, "lat": 47.1572, "lon": 7.2812}, {"name": "Schule Trimmis", "plz": "7203", "ort": "Trimmis", "ma": 45, "lat": 46.8899, "lon": 9.5669}, {"name": "Olam Global Agri Swiss Sarl", "plz": "1260", "ort": "nyon", "ma": 45, "lat": 46.3833, "lon": 6.2327}, {"name": "Lipomed AG", "plz": "4144", "ort": "Arlesheim", "ma": 45, "lat": 47.4963, "lon": 7.6281}, {"name": "CUTISS AG", "plz": "8952", "ort": "Schlieren", "ma": 45, "lat": 47.3946, "lon": 8.4455}, {"name": "Regionalgef\u00e4ngnis Thun", "plz": "3602", "ort": "Thun", "ma": 45, "lat": 46.2346, "lon": 7.8837}, {"name": "Primarschule Hettlingen", "plz": "8442", "ort": "Hettlingen", "ma": 45, "lat": 47.5482, "lon": 8.7107}, {"name": "Fl\u00fckiger & Co AG", "plz": "3414", "ort": "Oberburg", "ma": 45, "lat": 47.0142, "lon": 7.6087}, {"name": "Arcanite Solutions SA", "plz": "1070", "ort": "Puidoux", "ma": 45, "lat": 46.4934, "lon": 6.7932}, {"name": "Arch Re", "plz": "8001", "ort": "Z\u00fcrich", "ma": 45, "lat": 47.3729, "lon": 8.5416}, {"name": "Park Hotel Winterthur", "plz": "8400", "ort": "Winterthur", "ma": 45, "lat": 47.4911, "lon": 8.7373}, {"name": "Hefti. Hess. Martignoni.", "plz": "8005", "ort": "Z\u00fcrich", "ma": 45, "lat": 47.3868, "lon": 8.5205}, {"name": "Intersim AG", "plz": "3400", "ort": "Burgdorf", "ma": 45, "lat": 47.0575, "lon": 7.6178}, {"name": "Schulhaus Ruopigen", "plz": "6015", "ort": "Luzern", "ma": 45, "lat": 47.0636, "lon": 8.278}, {"name": "EIT.swiss", "plz": "8005", "ort": "Z\u00fcrich", "ma": 45, "lat": 47.3868, "lon": 8.5205}, {"name": "Distillerie Louis Morand & Cie SA", "plz": "1920", "ort": "Martigny", "ma": 45, "lat": 46.1064, "lon": 7.0993}, {"name": "Interkantonales Labor", "plz": "8200", "ort": "Schaffhausen", "ma": 45, "lat": 47.7171, "lon": 8.6211}, {"name": "Gymnasium St. Antonius", "plz": "9050", "ort": "Appenzell", "ma": 45, "lat": 47.3246, "lon": 9.3982}, {"name": "Bob Gysin Partner BGP Architekten AG", "plz": "8021", "ort": "Z\u00fcrich", "ma": 45, "lat": 46.2533, "lon": 7.9212}, {"name": "Schule R\u00fcfenacht", "plz": "3075", "ort": "Worb", "ma": 45, "lat": 46.9268, "lon": 7.5352}, {"name": "EDMS SA", "plz": "1213", "ort": "Petit-Lancy", "ma": 45, "lat": 46.1932, "lon": 6.1168}, {"name": "Rhiienergie AG", "plz": "7015", "ort": "Tamins", "ma": 45, "lat": 46.843, "lon": 9.4092}, {"name": "FPE-CIGA", "plz": "1630", "ort": "Bulle", "ma": 45, "lat": 46.5971, "lon": 7.0076}, {"name": "GEZOLAN AG", "plz": "6252", "ort": "Dagmersellen", "ma": 45, "lat": 47.2142, "lon": 7.9854}, {"name": "K\u00fcffer Elektro-Technik AG", "plz": "3422", "ort": "Kirchberg BE", "ma": 45, "lat": 47.087, "lon": 7.5856}, {"name": "ARCHITRAM", "plz": "1020", "ort": "Renens", "ma": 45, "lat": 46.535, "lon": 6.5886}, {"name": "Alters- und Pflegeheim Hofwis", "plz": "9607", "ort": "Mosnang", "ma": 45, "lat": 47.3609, "lon": 9.0411}, {"name": "Simpex Electronic AG", "plz": "8622", "ort": "Wetzikon", "ma": 45, "lat": 46.3309, "lon": 7.7085}, {"name": "Haustechnik Eugster AG", "plz": "9320", "ort": "Arbon", "ma": 44, "lat": 47.5396, "lon": 9.463}, {"name": "Optec AG", "plz": "8620", "ort": "Wetzikon", "ma": 44, "lat": 47.3224, "lon": 8.8063}, {"name": "Druckerei Odermatt AG", "plz": "6383", "ort": "Dallenwil", "ma": 44, "lat": 46.9219, "lon": 8.3837}, {"name": "Panter AG", "plz": "8005", "ort": "Z\u00fcrich", "ma": 44, "lat": 47.3868, "lon": 8.5205}, {"name": "ALRO Engineering SA", "plz": "1920", "ort": "Martigny", "ma": 44, "lat": 46.1064, "lon": 7.0993}, {"name": "Graub\u00fcnden Ferien", "plz": "7000", "ort": "Chur", "ma": 44, "lat": 46.853, "lon": 9.5298}, {"name": "Glas Tr\u00f6sch AG Silverstar", "plz": "4922", "ort": "B\u00fctzberg", "ma": 43, "lat": 47.2157, "lon": 7.7479}, {"name": "RGR Ing\u00e9nieurs Conseils", "plz": "1003", "ort": "Lausanne", "ma": 43, "lat": 46.52, "lon": 6.6301}, {"name": "beqom SA", "plz": "1260", "ort": "Nyon", "ma": 43, "lat": 46.3833, "lon": 6.2327}, {"name": "Bureau d'ing\u00e9nieurs civils Mauler SA", "plz": "2000", "ort": "Neuch\u00e2tel", "ma": 43, "lat": 46.9885, "lon": 6.9484}, {"name": "elektroplan Buchs&Grossen AG", "plz": "3714", "ort": "Frutigen", "ma": 43, "lat": 46.5845, "lon": 7.6364}, {"name": "Pilatus Praxis", "plz": "6003", "ort": "Luzern", "ma": 43, "lat": 47.05, "lon": 8.297}, {"name": "nag informatik ag", "plz": "4051", "ort": "Basel", "ma": 43, "lat": 47.5542, "lon": 7.5867}, {"name": "ABNOX AG", "plz": "6330", "ort": "Cham", "ma": 43, "lat": 47.1953, "lon": 8.4587}, {"name": "Raifffeisenbank Untere Emme", "plz": "4565", "ort": "Recherswil", "ma": 43, "lat": 47.1608, "lon": 7.6035}, {"name": "Wirtschaftliche Landesversorgung", "plz": "3003", "ort": "Bern", "ma": 43, "lat": 47.1185, "lon": 7.8297}, {"name": "Medizinisches Zentrum Brugg AG", "plz": "5200", "ort": "Brugg", "ma": 43, "lat": 47.4851, "lon": 8.2062}, {"name": "Chinderhuus Ebnit", "plz": "3780", "ort": "Gstaad", "ma": 43, "lat": 46.4724, "lon": 7.2852}, {"name": "Makro Art AG", "plz": "6022", "ort": "Grosswangen", "ma": 43, "lat": 47.1313, "lon": 8.0543}, {"name": "Impulsis", "plz": "8005", "ort": "Z\u00fcrich", "ma": 43, "lat": 47.3868, "lon": 8.5205}, {"name": "Naturmuseum St.Gallen", "plz": "9016", "ort": "St. Gallen", "ma": 42, "lat": 47.4402, "lon": 9.4149}, {"name": "PM Group Switzerland", "plz": "4057", "ort": "Basel", "ma": 42, "lat": 47.576, "lon": 7.5994}, {"name": "M\u00e4rki AG Innenausbau", "plz": "5722", "ort": "Gr\u00e4nichen", "ma": 42, "lat": 47.3543, "lon": 8.1057}, {"name": "Sportclub Huba Control", "plz": "5436", "ort": "W\u00fcrenlos", "ma": 42, "lat": 47.4493, "lon": 8.3647}, {"name": "Schulhaus Neumatt", "plz": "3123", "ort": "Belp", "ma": 42, "lat": 46.8934, "lon": 7.5073}, {"name": "Schule Friedheim", "plz": "8608", "ort": "Bubikon", "ma": 42, "lat": 47.2713, "lon": 8.8063}, {"name": "Betula", "plz": "8590", "ort": "Romanshorn", "ma": 42, "lat": 47.601, "lon": 9.4002}, {"name": "Swiss Cycling", "plz": "2540", "ort": "Grenchen", "ma": 42, "lat": 47.2001, "lon": 7.38}, {"name": "ELIBAG", "plz": "8353", "ort": "Elgg", "ma": 42, "lat": 47.4894, "lon": 8.8617}, {"name": "Geburtshaus Winterthur", "plz": "8400", "ort": "Winterthur", "ma": 42, "lat": 47.4911, "lon": 8.7373}, {"name": "Raiffeisenbank am Eppenberg", "plz": "5013", "ort": "Niedgerg\u00f6sgen", "ma": 42, "lat": 47.3749, "lon": 7.9843}, {"name": "IBITECH AG", "plz": "4142", "ort": "M\u00fcnchenstein", "ma": 42, "lat": 47.5175, "lon": 7.6115}, {"name": "Marquart Elektroplanung + Beratung AG", "plz": "9470", "ort": "Buchs SG", "ma": 42, "lat": 47.165, "lon": 9.4758}, {"name": "Friotherm AG", "plz": "8500", "ort": "Frauenfeld", "ma": 41, "lat": 47.5605, "lon": 8.9038}, {"name": "Gemeindeverwaltung Domat/Ems", "plz": "7013", "ort": "Domat/Ems", "ma": 41, "lat": 46.8198, "lon": 9.4507}, {"name": "Swiss Climate AG", "plz": "3011", "ort": "Bern", "ma": 41, "lat": 46.9472, "lon": 7.448}, {"name": "Fleurop-Interflora (Schweiz) AG", "plz": "8602", "ort": "Wangen", "ma": 41, "lat": 47.4087, "lon": 8.6505}, {"name": "CO Gr\u00f4ne", "plz": "3979", "ort": "Gr\u00f4ne", "ma": 41, "lat": 46.2311, "lon": 7.4861}, {"name": "EWK Herzogenbuchsee AG", "plz": "3360", "ort": "Herzogenbuchsee", "ma": 40, "lat": 47.1938, "lon": 7.7132}, {"name": "Optravis", "plz": "4051", "ort": "Basel", "ma": 40, "lat": 47.5542, "lon": 7.5867}, {"name": "Schule Marbach", "plz": "9437", "ort": "Marbach", "ma": 40, "lat": 47.3844, "lon": 9.5807}, {"name": "Schule Gr\u00fcningen", "plz": "8627", "ort": "Gr\u00fcningen", "ma": 40, "lat": 47.2788, "lon": 8.7621}, {"name": "Giuliani H\u00f6nger Architekten", "plz": "8004", "ort": "Z\u00fcrich", "ma": 40, "lat": 47.378, "lon": 8.5234}, {"name": "Primarschule Chr\u00fczacher", "plz": "8303", "ort": "Bassersdorf", "ma": 40, "lat": 47.4401, "lon": 8.6259}, {"name": "PORTMANN GARTEN AG", "plz": "6056", "ort": "Sarnen", "ma": 40, "lat": 46.917, "lon": 8.2491}, {"name": "St. Gallischer Hilfsverein", "plz": "9000", "ort": "St. Gallen", "ma": 40, "lat": 47.4237, "lon": 9.3622}, {"name": "Primarschule Zwingert", "plz": "8107", "ort": "Buchs ZH", "ma": 40, "lat": 47.4587, "lon": 8.4407}, {"name": "EULAR", "plz": "8802", "ort": "Kilchberg", "ma": 40, "lat": 47.3254, "lon": 8.5484}, {"name": "Tourismus Engadin Scuol Samnaun Val M\u00fcstair AG", "plz": "7550", "ort": "Scuol", "ma": 40, "lat": 46.7484, "lon": 10.3173}, {"name": "Schweizerischer Versicherungsverband SVV", "plz": "8002", "ort": "Z\u00fcrich", "ma": 40, "lat": 47.3607, "lon": 8.5326}, {"name": "Schulheim R\u00f6serental", "plz": "4410", "ort": "Liestal", "ma": 40, "lat": 47.4831, "lon": 7.7253}, {"name": "JVA Thorberg", "plz": "3326", "ort": "Krauchthal", "ma": 40, "lat": 47.0042, "lon": 7.5663}, {"name": "Rudolf & Bieri AG", "plz": "6020", "ort": "Emmenbr\u00fccke", "ma": 40, "lat": 47.0782, "lon": 8.2584}, {"name": "planikum AG", "plz": "8050", "ort": "Z\u00fcrich", "ma": 40, "lat": 47.4119, "lon": 8.5508}, {"name": "Fischer Architekten AG", "plz": "8045", "ort": "Z\u00fcrich", "ma": 40, "lat": 47.3516, "lon": 8.5056}, {"name": "Biofarm Genossenschaft", "plz": "4936", "ort": "Kleindietwil", "ma": 40, "lat": 47.1415, "lon": 7.7935}, {"name": "Kantonaler Sozialdienst Aargau", "plz": "5200", "ort": "Brugg", "ma": 40, "lat": 47.4851, "lon": 8.2062}, {"name": "ABA PARTENAIRES SA", "plz": "1005", "ort": "Lausanne", "ma": 40, "lat": 46.5231, "lon": 6.6413}, {"name": "SWAN Isotopen AG", "plz": "3010", "ort": "Bern", "ma": 40, "lat": 46.9473, "lon": 7.4247}, {"name": "Monte Rosa Therapeutics", "plz": "4057", "ort": "Basel", "ma": 40, "lat": 47.576, "lon": 7.5994}, {"name": "STRAUB Werke AG", "plz": "7323", "ort": "Wangs", "ma": 40, "lat": 47.0055, "lon": 9.408}, {"name": "Oberstufenzentrum OSZ M\u00fchlematt Belp", "plz": "3123", "ort": "Belp", "ma": 40, "lat": 46.8934, "lon": 7.5073}, {"name": "Raiffeisenbank Amriswil Bischofszell", "plz": "9220", "ort": "Bischofszell", "ma": 40, "lat": 47.4961, "lon": 9.2415}, {"name": "Staedler Automation AG", "plz": "9247", "ort": "Henau", "ma": 40, "lat": 47.4562, "lon": 9.1129}, {"name": "Venenklinik Bellevue", "plz": "8280", "ort": "Kreuzlingen", "ma": 40, "lat": 47.6406, "lon": 9.1756}, {"name": "NetGuardians SA", "plz": "1400", "ort": "Yverdon-les-Bains", "ma": 40, "lat": 46.7764, "lon": 6.6416}, {"name": "Bernard Frei & Cie SA", "plz": "2114", "ort": "Fleurier", "ma": 40, "lat": 46.8959, "lon": 6.5925}, {"name": "Schule Vechigen", "plz": "3067", "ort": "Boll", "ma": 40, "lat": 46.9676, "lon": 7.5511}, {"name": "Primarschule Marthalen", "plz": "8460", "ort": "Marthalen", "ma": 40, "lat": 47.6214, "lon": 8.6479}, {"name": "zvoove Switzerland AG", "plz": "4058", "ort": "Basel", "ma": 40, "lat": 47.5677, "lon": 7.6135}, {"name": "ImproWare AG", "plz": "4133", "ort": "Pratteln", "ma": 40, "lat": 47.5174, "lon": 7.6941}, {"name": "Gemeinde Koblenz", "plz": "5322", "ort": "Koblenz", "ma": 40, "lat": 47.6054, "lon": 8.2453}, {"name": "Primarschule Embrach", "plz": "8424", "ort": "Embrach", "ma": 40, "lat": 47.51, "lon": 8.5996}, {"name": "Thomas Jundt Ing\u00e9nieurs Civils SA", "plz": "1227", "ort": "Carouge", "ma": 40, "lat": 46.1795, "lon": 6.1423}, {"name": "SAP (Schweiz) AG", "plz": "8058", "ort": "Z\u00fcrich", "ma": 40, "lat": 46.096, "lon": 7.4981}, {"name": "Schule Oberrohrdorf", "plz": "5452", "ort": "Oberrohrdorf", "ma": 40, "lat": 47.427, "lon": 8.3181}, {"name": "SICK AG", "plz": "6370", "ort": "Stans", "ma": 40, "lat": 46.9566, "lon": 8.3609}, {"name": "Meteotest AG", "plz": "3012", "ort": "Bern", "ma": 40, "lat": 46.9609, "lon": 7.4255}, {"name": "inexo", "plz": "8200", "ort": "Schaffhausen", "ma": 40, "lat": 47.7171, "lon": 8.6211}, {"name": "RVK", "plz": "6006", "ort": "Luzern", "ma": 40, "lat": 47.053, "lon": 8.3334}, {"name": "F. Bernasconi & Cie SA", "plz": "2206", "ort": "Val-de-Ruz", "ma": 40, "lat": 47.0185, "lon": 6.8331}, {"name": "Primarschule Steinlig", "plz": "8303", "ort": "Bassersdorf", "ma": 40, "lat": 47.4401, "lon": 8.6259}, {"name": "Schulheim Hochsteig", "plz": "9620", "ort": "Lichtensteig", "ma": 40, "lat": 47.3171, "lon": 9.086}, {"name": "Fenster Keller AG", "plz": "9606", "ort": "B\u00fctschwil", "ma": 40, "lat": 47.3573, "lon": 9.0742}, {"name": "Husqvarna Schweiz AG", "plz": "8045", "ort": "Z\u00fcrich", "ma": 40, "lat": 47.3516, "lon": 8.5056}, {"name": "Schulhaus Barblan", "plz": "7000", "ort": "Chur", "ma": 40, "lat": 46.853, "lon": 9.5298}, {"name": "Logico Solutions AG", "plz": "6010", "ort": "Kriens", "ma": 40, "lat": 47.0163, "lon": 8.269}, {"name": "Oberstufe Lachenzelg", "plz": "8049", "ort": "Z\u00fcrich", "ma": 40, "lat": 47.4087, "lon": 8.5005}, {"name": "Centre social r\u00e9gional JUNOVA", "plz": "1400", "ort": "Yverdon-les-Bains", "ma": 40, "lat": 46.7764, "lon": 6.6416}, {"name": "Beat Bucher AG", "plz": "8274", "ort": "T\u00e4gerwilen", "ma": 40, "lat": 47.6455, "lon": 9.1295}, {"name": "Medizinisches Zentrum Arbon", "plz": "9320", "ort": "Arbon", "ma": 40, "lat": 47.5396, "lon": 9.463}, {"name": "Aquafit Sursee", "plz": "6210", "ort": "Sursee", "ma": 40, "lat": 47.1765, "lon": 8.105}, {"name": "Heilp\u00e4dagogische Schule Willisau", "plz": "6130", "ort": "Willisau", "ma": 40, "lat": 47.098, "lon": 7.9982}, {"name": "Produits dentaires SA", "plz": "1800", "ort": "Vevey", "ma": 40, "lat": 46.4424, "lon": 6.8328}, {"name": "Wohn- und Pflegeheim Lindenbaum", "plz": "9523", "ort": "Z\u00fcberwangen", "ma": 40, "lat": 47.4656, "lon": 9.0927}, {"name": "Bisch\u00f6fliches Ordinariat St. Gallen und Fachstellen", "plz": "9000", "ort": "St. Gallen", "ma": 40, "lat": 47.4237, "lon": 9.3622}, {"name": "Farb AG", "plz": "3098", "ort": "K\u00f6niz", "ma": 40, "lat": 46.9128, "lon": 7.4346}, {"name": "Politische Gemeinde Kaltbrunn", "plz": "8722", "ort": "Kaltbrunn", "ma": 40, "lat": 47.2087, "lon": 9.0237}, {"name": "R+K Raumplanung AG", "plz": "8808", "ort": "Pf\u00e4ffikon", "ma": 40, "lat": 47.198, "lon": 8.7818}, {"name": "Einwohnergemeinde Alpnach", "plz": "6055", "ort": "Alpnach Dorf", "ma": 40, "lat": 46.9504, "lon": 8.211}, {"name": "Schweizer Agrarmedien AG", "plz": "3053", "ort": "M\u00fcnchenbuchsee", "ma": 40, "lat": 47.0199, "lon": 7.451}, {"name": "F+F Schule f\u00fcr Kunst und Design", "plz": "8047", "ort": "Z\u00fcrich", "ma": 40, "lat": 47.3739, "lon": 8.487}, {"name": "Landheim Br\u00fcttisellen", "plz": "8303", "ort": "Bassersdorf", "ma": 40, "lat": 47.4401, "lon": 8.6259}, {"name": "Primarschule Sennhof", "plz": "8482", "ort": "Winterthur", "ma": 40, "lat": 47.4673, "lon": 8.758}, {"name": "Hotel Seeburg", "plz": "6006", "ort": "Luzern", "ma": 40, "lat": 47.053, "lon": 8.3334}, {"name": "Helvetica", "plz": "8002", "ort": "Z\u00fcrich", "ma": 40, "lat": 47.3607, "lon": 8.5326}, {"name": "HSE Conseils SA", "plz": "1196", "ort": "Gland", "ma": 40, "lat": 46.4105, "lon": 6.2879}, {"name": "SRK Thurgau", "plz": "8570", "ort": "Weinfelden", "ma": 40, "lat": 47.5686, "lon": 9.1074}, {"name": "Schule Mellingen- Wohlenschwil", "plz": "5507", "ort": "Mellingen", "ma": 40, "lat": 47.4207, "lon": 8.2765}, {"name": "Bildungszentrum Wald - Centre forestier de formation", "plz": "3250", "ort": "Lyss", "ma": 40, "lat": 47.0754, "lon": 7.3108}, {"name": "HGW Heimst\u00e4tten-Genossenschaft Winterthur", "plz": "8406", "ort": "Winterthur", "ma": 40, "lat": 47.4833, "lon": 8.6969}, {"name": "Gemdat AG", "plz": "9000", "ort": "St. Gallen", "ma": 40, "lat": 47.4237, "lon": 9.3622}, {"name": "Mecana AG", "plz": "8864", "ort": "Reichenburg", "ma": 40, "lat": 47.16, "lon": 8.9717}, {"name": "Oase Wetzikon", "plz": "8620", "ort": "Wetzikon", "ma": 40, "lat": 47.3224, "lon": 8.8063}, {"name": "Gemeinde Hunzenschwil", "plz": "5502", "ort": "Hunzenschwil", "ma": 39, "lat": 47.3827, "lon": 8.1236}, {"name": "WMM Ingenieure AG", "plz": "4142", "ort": "M\u00fcnchenstein", "ma": 39, "lat": 47.5175, "lon": 7.6115}, {"name": "Engadin Airport AG", "plz": "7503", "ort": "Samedan", "ma": 39, "lat": 46.5352, "lon": 9.8461}, {"name": "Ryser Ingenieure AG", "plz": "3001", "ort": "Bern", "ma": 39, "lat": 47.3597, "lon": 7.309}, {"name": "a&f systems ag", "plz": "6214", "ort": "Schenkon", "ma": 39, "lat": 47.1781, "lon": 8.1353}, {"name": "Victor Kyburz AG", "plz": "2553", "ort": "Safnern", "ma": 39, "lat": 47.15, "lon": 7.3231}, {"name": "SSE Engineering AG", "plz": "3072", "ort": "Ostermundigen", "ma": 39, "lat": 46.9558, "lon": 7.4949}, {"name": "B\u00fcrki Electric AG", "plz": "3613", "ort": "Steffisburg", "ma": 39, "lat": 46.773, "lon": 7.6134}, {"name": "Wildnispark Z\u00fcrich", "plz": "8135", "ort": "Sihlwald", "ma": 39, "lat": 47.2805, "lon": 8.5288}, {"name": "bsb.info.partner AG", "plz": "9014", "ort": "St. Gallen", "ma": 39, "lat": 47.4093, "lon": 9.3355}, {"name": "OPPENHEIM ARCHITECTURE", "plz": "4142", "ort": "M\u00fcnchenstein", "ma": 39, "lat": 47.5175, "lon": 7.6115}, {"name": "Unico Data AG", "plz": "3110", "ort": "M\u00fcnsingen", "ma": 38, "lat": 46.8753, "lon": 7.5576}, {"name": "Niki's Chur AG", "plz": "7000", "ort": "Chur", "ma": 38, "lat": 46.853, "lon": 9.5298}, {"name": "PLANAR AG f\u00fcr Raumentwicklung", "plz": "8055", "ort": "Z\u00fcrich", "ma": 38, "lat": 47.3642, "lon": 8.4903}, {"name": "Schule Oberwisen", "plz": "8602", "ort": "Wange", "ma": 38, "lat": 47.4087, "lon": 8.6505}, {"name": "Aceon AG", "plz": "6370", "ort": "Stans", "ma": 38, "lat": 46.9566, "lon": 8.3609}, {"name": "blpk", "plz": "4410", "ort": "Liestal", "ma": 38, "lat": 47.4831, "lon": 7.7253}, {"name": "e. Luterbach AG", "plz": "6024", "ort": "Hildiesrieden", "ma": 38, "lat": 47.1467, "lon": 8.2347}, {"name": "Pico Vorsorge AG", "plz": "4053", "ort": "Basel", "ma": 38, "lat": 47.5382, "lon": 7.6011}, {"name": "Raiffeisenbank Werdenberg", "plz": "9470", "ort": "Buchs", "ma": 38, "lat": 47.165, "lon": 9.4758}, {"name": "Kreisschule Bechburg", "plz": "4702", "ort": "Oensingen", "ma": 38, "lat": 47.2839, "lon": 7.7216}, {"name": "EFP AG", "plz": "8105", "ort": "Regensdorf", "ma": 37, "lat": 47.4352, "lon": 8.4672}, {"name": "OCOM AG", "plz": "3902", "ort": "3902 Glis", "ma": 37, "lat": 46.2914, "lon": 7.9815}, {"name": "greenteg AG", "plz": "8153", "ort": "R\u00fcmlang", "ma": 37, "lat": 47.4501, "lon": 8.5266}, {"name": "Raiffeisenbank Mittleres Toggenburg", "plz": "9630", "ort": "Wattwil", "ma": 37, "lat": 47.2916, "lon": 9.0686}, {"name": "clavis IT ag", "plz": "9100", "ort": "Herisau", "ma": 37, "lat": 47.3792, "lon": 9.2876}, {"name": "K.A. Bl\u00f6chliger AG", "plz": "8953", "ort": "Dietikon", "ma": 37, "lat": 47.4014, "lon": 8.389},