  // 100-500km from Zurich (15 entries)
  { name: "Mont Blanc", lat: 45.8326, lon: 6.8652, preposition: "bis zum", description: "den höchsten Berg Westeuropas – 4'807 m, und der Tunnel darunter ist 11.6 km lang" },
  { name: "Markusplatz Venedig", lat: 45.4341, lon: 12.3388, preposition: "bis zum", description: "den Platz, der regelmässig überschwemmt wird – Gummistiefel sind hier Modeaccessoire" },
  { name: "Strassburger Münster", lat: 48.5818, lon: 7.7510, preposition: "bis zum", description: "die Kathedrale, die 227 Jahre lang das höchste Gebäude der Welt war" },
  { name: "Schloss Versailles", lat: 48.8049, lon: 2.1204, preposition: "bis zum", description: "das Schloss mit 2'300 Räumen – die Spiegelgalerie hat 357 Spiegel" },
  { name: "Miniatur Wunderland Hamburg", lat: 53.5437, lon: 9.9888, preposition: "bis zum", description: "die grösste Modelleisenbahn der Welt – über 1'000 Züge auf 16 km Gleisen" },
  { name: "Keukenhof", lat: 52.2697, lon: 4.5462, preposition: "bis zum", description: "den grössten Blumengarten der Welt bei Amsterdam – 7 Millionen Tulpen pro Saison" },
  { name: "Basteibrücke Sächsische Schweiz", lat: 50.9626, lon: 14.0731, preposition: "bis zur", description: "die Brücke über 40 m hohen Sandsteinfelsen – seit 1851 ein Touristenmagnet" },
  { name: "Semmeringbahn", lat: 47.6333, lon: 15.8500, preposition: "bis zur", description: "die erste Gebirgseisenbahn der Welt – 1854 eröffnet und heute UNESCO-Welterbe" },
  { name: "Postojna-Höhle", lat: 45.7828, lon: 14.2044, preposition: "bis zur", description: "die Höhle mit eigenem Eisenbahnnetz – der Grottenolm hier wird bis zu 100 Jahre alt" },
  { name: "Schloss Schönbrunn Wien", lat: 48.1845, lon: 16.3122, preposition: "bis zum", description: "die kaiserliche Sommerresidenz mit dem ältesten Zoo der Welt im Garten" },
  { name: "Cinque Terre", lat: 44.1270, lon: 9.7100, preposition: "bis zu den", description: "die fünf pastellfarbenen Dörfer an der ligurischen Küste – nur zu Fuss oder per Zug erreichbar" },
  { name: "Dolomiten Drei Zinnen", lat: 46.6187, lon: 12.3030, preposition: "bis zu den", description: "die drei markanten Felstürme der Dolomiten – bis zu 2'999 m hoch" },
  { name: "Schwarzwald Kuckucksuhr", lat: 48.1502, lon: 8.2232, preposition: "bis zur", description: "die grösste Kuckucksuhr der Welt in Triberg – der Kuckuck ist so gross wie ein Kind" },
  { name: "Mont-Saint-Michel", lat: 48.6361, lon: -1.5115, preposition: "bis zum", description: "die Klosterinsel in der Normandie – bei Flut eine Insel, bei Ebbe zu Fuss erreichbar" },
  { name: "Mosel Steillagen", lat: 50.1092, lon: 7.0731, preposition: "bis zu den", description: "die steilsten Weinberge Europas – bis zu 65° Neigung, nur per Hand zu bearbeiten" },

  // 500-2000km from Zurich (20 entries)
  { name: "Edinburgh Castle", lat: 55.9486, lon: -3.1999, preposition: "bis zum", description: "die Festung auf einem erloschenen Vulkan – Kanone feuert täglich um 13 Uhr" },
  { name: "Cliffs of Moher", lat: 52.9715, lon: -9.4309, preposition: "bis zu den", description: "die 214 m hohen Klippen an Irlands Westküste – bei klarem Wetter sieht man die Aran-Inseln" },
  { name: "Akropolis-Museum Athen", lat: 37.9685, lon: 23.7284, preposition: "bis zum", description: "das Museum mit Glasboden – man sieht beim Besuch auf die antike Stadt darunter" },
  { name: "Pompeji", lat: 40.7509, lon: 14.4869, preposition: "bis nach", description: "die vom Vesuv 79 n. Chr. verschüttete Stadt – Brotlaibe sind noch erkennbar" },
  { name: "Blaue Moschee Mazar-i-Sharif", lat: 36.7068, lon: 67.1148, preposition: "bis zur", description: "die Moschee, zu der jedes Frühjahr Tausende weisse Tauben pilgern" },
  { name: "Burg Bran Transsilvanien", lat: 45.5150, lon: 25.3672, preposition: "bis zur", description: "das angebliche Schloss von Graf Dracula – Bram Stoker war allerdings nie dort" },
  { name: "Preikestolen", lat: 58.9863, lon: 6.1905, preposition: "bis zum", description: "die flache Felsplattform 604 m über dem Lysefjord – ohne Geländer" },
  { name: "Vatikanische Museen", lat: 41.9065, lon: 12.4536, preposition: "bis zu den", description: "die Museen mit 7 km Korridoren voller Kunst – die Sixtinische Kapelle ist der Höhepunkt" },
  { name: "La Tomatina Buñol", lat: 39.4200, lon: -0.7900, preposition: "bis nach", description: "das Dorf bei Valencia, wo jährlich 150 Tonnen Tomaten geworfen werden" },
  { name: "Färöer-Inseln", lat: 61.8926, lon: -6.9118, preposition: "bis zu den", description: "die 18 Inseln im Nordatlantik – mehr Schafe als Menschen, und der See über dem Meer" },
  { name: "Blue Lagoon Malta", lat: 36.0610, lon: 14.1856, preposition: "bis zur", description: "die winzige Bucht zwischen Comino und Cominotto mit absurd türkisem Wasser" },
  { name: "Plitvicer Bärenhöhle", lat: 44.7635, lon: 15.3610, preposition: "bis zur", description: "die Höhle voller Tropfsteine, die vor 1 Million Jahren entstand" },
  { name: "Tromsø Polarmuseum", lat: 69.6496, lon: 18.9560, preposition: "bis zum", description: "die arktische Stadt, in der die Sonne 69 Tage lang nicht untergeht" },
  { name: "Blaue Grotte Malta", lat: 35.8235, lon: 14.4550, preposition: "bis zur", description: "die Meereshöhle, in der Phosphoreszenz das Wasser neonblau färbt" },
  { name: "Valletta", lat: 35.8989, lon: 14.5146, preposition: "bis nach", description: "die kleinste EU-Hauptstadt – die gesamte Altstadt ist UNESCO-Welterbe" },
  { name: "Plinius' Vulkan Vesuv", lat: 40.8218, lon: 14.4289, preposition: "bis zum", description: "den einzigen aktiven Vulkan auf dem europäischen Festland – 3 Millionen Menschen leben im Schatten" },
  { name: "Geirangerfjord", lat: 62.1048, lon: 7.0949, preposition: "bis zum", description: "den UNESCO-Fjord mit verlassenen Bergbauernhöfen an 250 m hohen Felswänden" },
  { name: "Samarkand Registan", lat: 39.6547, lon: 66.9597, preposition: "bis zum", description: "den legendären Platz an der Seidenstrasse – Timur liess hier die schönsten Mosaike der Welt bauen" },
  { name: "Plovdiv Altstadt", lat: 42.1500, lon: 24.7500, preposition: "bis nach", description: "eine der ältesten durchgehend bewohnten Städte der Welt – seit 6'000 v. Chr." },
  { name: "Lapplands Eishotel", lat: 67.8558, lon: 20.2253, preposition: "bis zum", description: "das Hotel in Schweden, das jeden Winter neu aus Eis gebaut wird – Zimmertemperatur: –5°C" },

  // 2000-5000km from Zurich (20 entries)
  { name: "Göbekli Tepe", lat: 37.2233, lon: 38.9224, preposition: "bis zum", description: "den ältesten Tempel der Menschheit – 7'000 Jahre älter als Stonehenge" },
  { name: "Totes-Meer-Schriftrollen Qumran", lat: 31.7413, lon: 35.4593, preposition: "bis nach", description: "den Fundort der ältesten Bibeltexte – zufällig 1947 von einem Ziegenhirten entdeckt" },
  { name: "Sansibar Stone Town", lat: -6.1622, lon: 39.1921, preposition: "bis nach", description: "die Gewürzinsel mit labyrinthischen Gassen – Geburtsort von Freddie Mercury" },
  { name: "Dogon-Klippen Mali", lat: 14.4000, lon: -3.5667, preposition: "bis zu den", description: "die Klippen, an denen das Volk der Dogon Dörfer in die Felswand gebaut hat" },
  { name: "Damaraland Felsgravuren", lat: -20.4833, lon: 14.5333, preposition: "bis zu den", description: "die über 6'000 Jahre alten Steinritzungen in Namibia – die grösste Sammlung Afrikas" },
  { name: "Derweze Tor zur Hölle", lat: 40.2525, lon: 58.4397, preposition: "bis zum", description: "den Gaskrater in Turkmenistan, der seit 1971 ununterbrochen brennt" },
  { name: "Bukhara Altstadt", lat: 39.7681, lon: 64.4556, preposition: "bis nach", description: "die Stadt an der Seidenstrasse mit dem Poi-Kalon-Komplex – sogar Dschingis Khan verschonte ihn" },
  { name: "Jerash Jordanien", lat: 32.2747, lon: 35.8911, preposition: "bis nach", description: "eine der besterhaltenen römischen Provinzstädte ausserhalb Italiens" },
  { name: "Djemila Algerien", lat: 36.3214, lon: 5.7364, preposition: "bis nach", description: "die römische Ruinenstadt auf 900 m Höhe – eines der besterhaltenen Mosaiken Nordafrikas" },
  { name: "Île de Gorée Senegal", lat: 14.6667, lon: -17.3986, preposition: "bis zur", description: "die Insel vor Dakar – Symbol der Sklaverei mit dem berühmten «Haus der Sklaven»" },
  { name: "Aral-See Schiffsfriedhof", lat: 45.0000, lon: 58.5000, preposition: "bis zum", description: "den ausgetrockneten See in Usbekistan – rostige Schiffe stehen mitten in der Wüste" },
  { name: "Perm-36 Gulag-Museum", lat: 57.6000, lon: 56.5667, preposition: "bis zum", description: "das einzige erhaltene Gulag-Lager Russlands – bis 1987 in Betrieb" },
  { name: "Baalbek Tempel", lat: 34.0068, lon: 36.2039, preposition: "bis zum", description: "die Tempelruinen im Libanon mit dem grössten je verbauten Steinblock – 1'000 Tonnen schwer" },
  { name: "Danakil-Senke Äthiopien", lat: 14.2417, lon: 40.2950, preposition: "bis zur", description: "den heissesten bewohnten Ort der Erde – durchschnittlich 34.4°C, mit Lavaseen und Schwefelfeldern" },
  { name: "Felsenstadt Uplistsikhe", lat: 41.9667, lon: 44.2000, preposition: "bis zur", description: "die 3'000 Jahre alte Höhlenstadt in Georgien – komplett aus dem Fels geschlagen" },
  { name: "Norilsk Russland", lat: 69.3535, lon: 88.2027, preposition: "bis nach", description: "die nördlichste Grossstadt der Welt – im Winter –50°C, für Ausländer bis 2019 gesperrt" },
  { name: "Dallol Äthiopien", lat: 14.2425, lon: 40.2956, preposition: "bis nach", description: "den Ort mit dem höchsten Jahresdurchschnitt der Welt – neongelbe Schwefellandschaften wie auf einem fremden Planeten" },
  { name: "Victoria-See", lat: -1.0667, lon: 33.4167, preposition: "bis zum", description: "den grössten See Afrikas – fast so gross wie Bayern" },
  { name: "Aksum Obelisken", lat: 14.1211, lon: 38.7189, preposition: "bis zu den", description: "die 1'700 Jahre alten Stelen in Äthiopien – eine wurde von Italien geraubt und 2005 zurückgegeben" },
  { name: "Kappadokien Untergrundstadt Derinkuyu", lat: 38.3736, lon: 34.7347, preposition: "bis zur", description: "die unterirdische Stadt für 20'000 Menschen auf 8 Stockwerken – mit Kirche und Weinkeller" },

  // 5000-10000km from Zurich (20 entries)
  { name: "Potala-Palast Lhasa", lat: 29.6525, lon: 91.1172, preposition: "bis zum", description: "die Winterresidenz des Dalai Lama auf 3'700 m – 1'000 Räume und 10'000 Schreine" },
  { name: "Tempel von Khajuraho", lat: 24.8318, lon: 79.9199, preposition: "bis zu den", description: "die Tempel in Indien mit den freizügigsten Skulpturen der Welt – und das auf heiligem Grund" },
  { name: "Tempelstadt Hampi", lat: 15.3350, lon: 76.4600, preposition: "bis nach", description: "die Ruinenstadt mit über 1'600 Relikten – einst reicher als Rom" },
  { name: "Meiji-Schrein Tokio", lat: 35.6764, lon: 139.6993, preposition: "bis zum", description: "den Shinto-Schrein mitten in Tokio – umgeben von 100'000 gespendeten Bäumen" },
  { name: "Nara Hirschpark", lat: 34.6851, lon: 135.8048, preposition: "bis zum", description: "die Stadt in Japan, wo über 1'200 heilige Hirsche frei herumlaufen und sich verbeugen" },
  { name: "Luang Prabang", lat: 19.8856, lon: 102.1347, preposition: "bis nach", description: "die Stadt in Laos, wo jeden Morgen hunderte Mönche barfuss durch die Strassen ziehen" },
  { name: "Banaue Reisterrassen", lat: 16.9167, lon: 121.0500, preposition: "bis zu den", description: "die 2'000 Jahre alten Reisterrassen auf den Philippinen – aneinandergereiht halb so lang wie die Erde" },
  { name: "Prambanan Java", lat: -7.7520, lon: 110.4914, preposition: "bis nach", description: "die grösste hinduistische Tempelanlage Indonesiens – 240 Türme in konzentrischen Ringen" },
  { name: "Banff Nationalpark", lat: 51.4968, lon: -115.9281, preposition: "bis zum", description: "den ältesten Nationalpark Kanadas – türkise Seen, die ihre Farbe von Gletschermehl bekommen" },
  { name: "Niagara-on-the-Lake", lat: 43.2551, lon: -79.0715, preposition: "bis nach", description: "das charmante Weinbaudorf direkt neben den tosenden Niagarafällen – berühmt für Eiswein" },
  { name: "Denali Alaska", lat: 63.0692, lon: -151.0070, preposition: "bis zum", description: "den höchsten Berg Nordamerikas – 6'190 m, und die Basis-zu-Gipfel-Höhe übertrifft den Everest" },
  { name: "Teotihuacán Mexiko", lat: 19.6925, lon: -98.8438, preposition: "bis nach", description: "die Pyramidenstadt, die schon die Azteken als Ruine vorfanden – niemand weiss, wer sie baute" },
  { name: "Havanna Malecón", lat: 23.1451, lon: -82.3590, preposition: "bis zum", description: "die 8 km lange Uferpromenade in Kubas Hauptstadt – mit Oldtimern aus den 1950ern" },
  { name: "Cartagena Altstadt", lat: 10.3910, lon: -75.5144, preposition: "bis nach", description: "die karibische Festungsstadt in Kolumbien – Gabriel García Márquez' Lieblingskulisse" },
  { name: "Galerie der Nacht Kolmanskop", lat: -26.7033, lon: 15.2278, preposition: "bis nach", description: "die Geisterstadt in Namibia, wo Wüstensand durch die Fenster ehemaliger Diamantenhäuser weht" },
  { name: "Krüger-Nationalpark", lat: -23.9884, lon: 31.5547, preposition: "bis zum", description: "Südafrikas grösstes Wildreservat – fast so gross wie die Schweiz, mit den Big Five" },
  { name: "Mekong-Delta", lat: 10.0341, lon: 105.7222, preposition: "bis zum", description: "das Flusslabyrinth in Vietnam mit schwimmenden Märkten, auf denen vom Boot aus gehandelt wird" },
  { name: "Shirakawa-gō", lat: 36.2558, lon: 136.9056, preposition: "bis nach", description: "das japanische Dorf mit steilen Strohdächern – die Häuser halten meterhoch Schnee aus" },
  { name: "Jiuzhaigou-Tal", lat: 33.2600, lon: 103.9200, preposition: "bis zum", description: "das Tal in China mit über 100 bunten Seen – das Wasser schimmert in 5 verschiedenen Farben" },
  { name: "Socotra Drachenblutbaum", lat: 12.5158, lon: 54.0583, preposition: "bis zum", description: "den Baum, der aussieht wie ein umgedrehter Regenschirm – sein roter Saft galt als Drachenblut" },

  // 10000-15000km from Zurich (15 entries)
  { name: "Nazca-Linien", lat: -14.7350, lon: -75.1300, preposition: "bis zu den", description: "die riesigen Bodenzeichnungen in Peru – nur aus der Luft erkennbar, bis zu 200 m gross" },
  { name: "Isla de los Muñecos Mexiko", lat: 19.2886, lon: -99.0903, preposition: "bis zur", description: "die Insel der Puppen bei Mexiko-Stadt – Hunderte verstümmelte Puppen hängen in den Bäumen" },
  { name: "Coober Pedy", lat: -29.0135, lon: 134.7544, preposition: "bis nach", description: "die australische Opalstadt, wo die Bewohner wegen der Hitze unterirdisch leben – Kirchen inklusive" },
  { name: "Moai-Steinbruch Rano Raraku", lat: -27.1256, lon: -109.3117, preposition: "bis zum", description: "die Werkstatt der Moai – 397 unfertige Statuen stecken noch im Vulkanfels" },
  { name: "Salto Ángel Venezuela", lat: 5.9701, lon: -62.5362, preposition: "bis zum", description: "den höchsten Wasserfall der Welt – 979 m, das Wasser verdunstet teilweise bevor es unten ankommt" },
  { name: "Galápagos Tortuga Bay", lat: -0.7680, lon: -90.3233, preposition: "bis zur", description: "den Strand, wo Meeresiguane neben Touristen sonnenbaden – ohne jede Scheu" },
  { name: "Titikaka Isla del Sol", lat: -16.0167, lon: -69.1667, preposition: "bis zur", description: "die heilige Insel der Inka – laut Legende Geburtsort der Sonne" },
  { name: "Ushuaia", lat: -54.8019, lon: -68.3030, preposition: "bis nach", description: "die südlichste Stadt der Welt – Startpunkt für Antarktis-Expeditionen" },
  { name: "Bonneville Salt Flats", lat: 40.7577, lon: -113.8908, preposition: "bis zu den", description: "die Salzebene in Utah, wo Landgeschwindigkeitsrekorde gebrochen werden – über 1'000 km/h" },
  { name: "Fly Geyser Nevada", lat: 40.8594, lon: -119.3319, preposition: "bis zum", description: "den versehentlich 1964 erschaffenen Geysir – Algen färben ihn in surreale Neonfarben" },
  { name: "Door to Hell Turkmenistan", lat: 40.2528, lon: 58.4397, preposition: "bis zum", description: "den brennenden Gaskrater in der Karakum-Wüste – seit über 50 Jahren in Flammen" },
  { name: "Hang Sơn Đoòng Vietnam", lat: 17.5433, lon: 106.1453, preposition: "bis zur", description: "die grösste Höhle der Welt – so gross, dass ein Jumbo-Jet hineinpassen würde" },
  { name: "Raja Ampat Indonesien", lat: -0.2300, lon: 130.5167, preposition: "bis nach", description: "das Tauchparadies mit der grössten Artenvielfalt der Meere – 75% aller bekannten Korallenarten" },
  { name: "Lake Hillier Australien", lat: -34.0944, lon: 123.2030, preposition: "bis zum", description: "den See in Westaustralien, der knallrosa ist – und niemand weiss genau warum" },
  { name: "Spotted Lake Kanada", lat: 49.0786, lon: -119.5692, preposition: "bis zum", description: "den See in British Columbia, der im Sommer in bunte Flecken aus Mineralien zerfällt" },

  // 15000-20037km from Zurich (10 entries)
  { name: "Milford Sound", lat: -44.6414, lon: 167.8975, preposition: "bis zum", description: "den neuseeländischen Fjord, den Rudyard Kipling das «achte Weltwunder» nannte" },
  { name: "Hobbiton Matamata", lat: -37.8722, lon: 175.6836, preposition: "bis nach", description: "das echte Auenland aus «Herr der Ringe» – 44 Hobbithöhlen stehen noch" },
  { name: "Rotorua Geothermal", lat: -38.1368, lon: 176.2497, preposition: "bis nach", description: "die Stadt, die nach Schwefel riecht – kochende Schlammpools mitten im Stadtpark" },
  { name: "Abel Tasman Nationalpark", lat: -40.8500, lon: 173.0000, preposition: "bis zum", description: "den kleinsten Nationalpark Neuseelands – goldene Strände und Robbenkolonien" },
  { name: "Franz-Josef-Gletscher NZ", lat: -43.3881, lon: 170.1833, preposition: "bis zum", description: "den Gletscher, der fast bis zum Regenwald hinunterreicht – einer der steilsten der Welt" },
  { name: "Tasmanien Cradle Mountain", lat: -41.6500, lon: 145.9500, preposition: "bis zum", description: "den Berg auf Tasmanien, wo der Tasmanische Teufel noch in freier Wildbahn lebt" },
  { name: "Tonga Schwimmen mit Walen", lat: -18.6500, lon: -174.0000, preposition: "bis nach", description: "eines der wenigen Länder, wo man legal mit Buckelwalen schnorcheln darf" },
  { name: "Rarotonga Cookinseln", lat: -21.2367, lon: -159.7667, preposition: "bis nach", description: "die winzige Insel im Südpazifik – eine Busrunde dauert 50 Minuten, es gibt keinen Stau" },
  { name: "Pitcairn-Inseln", lat: -25.0667, lon: -130.1000, preposition: "bis zu den", description: "die Heimat der Nachfahren der Bounty-Meuterer – 50 Einwohner, eine der kleinsten Demokratien der Welt" },
  { name: "McMurdo-Station Antarktis", lat: -77.8419, lon: 166.6863, preposition: "bis zur", description: "die grösste Forschungsstation der Antarktis – mit eigenem Geldautomaten und Bowlingbahn" },
